Region,Country,Station,Latitude,Longitude,"Ts,avg","Ts,amplitude,1","Ts,amplitude,2",PL1,PL2
5,USA,Adak NAS    ,51.88,-176.65,5.4,4.4,-1.1,41,61
5,USA,Ambler     ,67.1,-157.85,-0.5,8.5,-1.2,25,-4
5,USA,Anaktuvuk Pass    ,68.13,-151.73,-3.4,9.8,-2.5,36,-20
5,USA,Anchorage-Elmendorf AFB    ,61.25,-149.8,5.6,9.3,-2.9,19,18
5,USA,Anchorage-Lake Hood Seaplane Base  ,61.18,-149.97,5.7,9.3,-2.3,23,12
5,USA,Anchorage-Merrill Field    ,61.22,-149.85,5.4,9.7,-3.1,26,15
5,USA,Anchorage Intl AP   ,61.18,-150,4.7,10.8,-2.3,24,25
5,USA,Aniak AP    ,61.58,-159.53,2.3,7.3,-2.8,29,25
5,USA,Annette Island AP   ,55.05,-131.57,8.9,5.8,-0.7,27,44
5,USA,Anvik     ,62.65,-160.18,2.4,8.3,-1.7,31,36
5,USA,Barrow-W Post-W Rogers AP  ,71.32,-156.62,-8,12.3,-1.1,44,-16
5,USA,Bethel AP    ,60.78,-161.83,1.9,8.1,-1.3,36,26
5,USA,Bettles Field    ,66.92,-151.52,-0.5,11.1,-2,22,-5
5,USA,Big Delta-Allen AAF   ,64,-145.72,3.7,12.3,-3.1,23,10
5,USA,Big River Lake   ,60.82,-152.3,5.1,9.9,-3.4,25,18
5,USA,Birchwood     ,61.42,-149.52,5.5,9.7,-2.5,19,15
5,USA,Chulitna     ,62.88,-149.83,2.9,7,-2.5,29,18
5,USA,Cold Bay AP   ,55.2,-162.72,5.1,5.4,-1,38,37
5,USA,Cordova     ,60.5,-145.5,5.1,7.8,-1.1,18,34
5,USA,Deadhorse     ,70.2,-148.48,-5.1,12.2,-4.4,47,-20
5,USA,Dillingham AWOS    ,59.05,-158.52,3.5,7,-3,26,30
5,USA,Eielson AFB    ,64.65,-147.1,2.1,9.6,-2.3,28,18
5,USA,Emmonak     ,62.78,-164.5,1.7,7.3,-1.3,38,43
5,USA,Fairbanks Intl AP   ,64.82,-147.85,2.4,11.6,-1.8,26,19
5,USA,Fort Yukon    ,66.57,-145.27,-0.7,11.1,-2.4,23,-8
5,USA,Gambell     ,63.78,-171.75,-0.5,5.1,-0.7,48,5
5,USA,Gulkana     ,62.15,-145.45,1.5,9.3,-0.4,28,22
5,USA,Gustavus     ,58.42,-135.7,5.9,7.5,0,20,13
5,USA,Hayes River    ,61.98,-152.08,4.2,8.5,-3.2,28,24
5,USA,Healy River AP   ,63.88,-149.02,3.1,8.1,-2.4,28,18
5,USA,Homer AP    ,59.65,-151.48,4.7,8.3,-1.6,34,30
5,USA,Hoonah     ,58.08,-135.45,6,8.5,-0.9,21,13
5,USA,Hooper Bay    ,61.52,-166.15,1.1,5.9,0.1,46,7
5,USA,Huslia     ,65.7,-156.38,0.6,8.7,-0.6,24,11
5,USA,Iliamna AP    ,59.75,-154.92,4.7,7.8,-2.4,24,27
5,USA,Juneau Intl AP   ,58.35,-134.58,6.3,8.8,-0.5,23,-4
5,USA,Kake Seaplane Base   ,56.97,-133.95,7.2,7.7,-0.9,22,32
5,USA,Kenai Muni AP   ,60.58,-151.23,5.3,8.7,-2.4,20,22
5,USA,Ketchikan Intl AP   ,55.37,-131.72,7.4,8.2,-0.5,29,10
5,USA,King Salmon AP   ,58.68,-156.65,3,8.1,-2,36,36
5,USA,Kodiak AP    ,57.75,-152.5,6.9,6.4,-1.5,24,48
5,USA,Kotzebue-Ralph Wein Mem AP  ,66.88,-162.6,-1.7,9,-2,44,8
5,USA,McGrath AP    ,62.95,-155.6,0.9,10.3,-1.3,28,18
5,USA,Mekoryuk 702185    ,60.37,-166.27,1.5,5,1.7,46,-35
5,USA,Middleton Island    ,59.47,-146.32,7,5.6,-1.8,37,48
5,USA,Minchumina 702460    ,63.88,-152.28,2.3,11.1,-1.3,20,29
5,USA,Nenana Muni AP   ,64.55,-149.1,1.9,8.5,-2.7,24,13
5,USA,Nome Muni AP   ,64.52,-165.45,0.2,7.1,-1.8,40,11
5,USA,Northway AP    ,62.97,-141.93,-0.9,11,-1.6,23,-2
5,USA,Palmer Muni AP   ,61.6,-149.08,6.2,8.6,-1.9,20,17
5,USA,Petersburg     ,56.8,-132.95,6.3,8,-0.5,21,14
5,USA,Point Hope AWOS   ,68.35,-166.8,-2.6,7.3,-2.6,56,-13
5,USA,Port Heiden    ,56.95,-158.62,3.9,6.2,-1.6,43,36
5,USA,Saint Marys AWOS   ,62.07,-163.3,1.9,6.1,-1.2,45,19
5,USA,Sand Point    ,55.32,-160.52,5.3,5.9,-1.8,30,44
5,USA,Savoonga     ,63.68,-170.5,-0.3,5.3,-1,46,-7
5,USA,Selawik     ,66.6,-160,-0.9,8.4,-1.5,33,-9
5,USA,Seward     ,60.12,-149.45,5.2,8,-1.6,24,27
5,USA,Shemya AFB    ,52.72,174.12,3.7,4.9,0.7,47,-37
5,USA,Shishmaref AWOS    ,66.27,-166.05,-1.5,7.3,-1.7,48,-13
5,USA,Sitka-Japonski Island AP   ,57.05,-135.37,7.3,7.6,-0.2,30,21
5,USA,Skagway AP    ,59.47,-135.3,7.1,9.8,-1.1,14,-1
5,USA,Sleetmute     ,61.72,-157.15,3.2,9.5,-0.8,17,17
5,USA,Soldotna     ,60.47,-151.03,4.3,8.6,-2.8,23,26
5,USA,St Paul Island AP  ,57.17,-170.22,2.9,5.4,-1.5,55,45
5,USA,Talkeetna State AP   ,62.32,-150.1,3.5,9.8,-1.8,28,32
5,USA,Tanana-Ralph Calhoun AP   ,65.17,-152.1,0.4,8.6,-1.2,28,11
5,USA,Togiak Village AWOS   ,59.05,-160.4,3.6,7.1,-2.8,35,32
5,USA,Unalakleet Field    ,63.88,-160.8,1.3,6.8,-0.2,34,8
5,USA,Unalaska-Dutch Harbor Field   ,53.9,-166.55,5.6,5.2,-1.3,44,25
5,USA,Valdez-Pioneer Field    ,61.13,-146.27,5.5,8,-1.7,21,22
5,USA,Valdez     ,61.13,-146.35,4.9,8.2,-1.4,26,20
5,USA,Whittier     ,60.77,-148.68,4.9,8.1,-1.8,24,23
5,USA,Wrangell     ,56.48,-132.37,7.1,8.1,-0.1,26,3
5,USA,Yakutat State AP   ,59.52,-139.63,5.2,7.9,-1,30,22
5,USA,Anniston Metro AP   ,33.58,-85.85,17.9,8.8,0.9,16,3
5,USA,Auburn-Opelika AP    ,32.62,-85.43,17.7,8.8,0.9,24,21
5,USA,Birmingham Muni AP   ,33.57,-86.75,18.1,9.8,0.9,19,-3
5,USA,Dothan Muni AP   ,31.23,-85.43,20,9.3,1.3,20,11
5,USA,Fort Rucker-Cairns Field   ,31.27,-85.72,18.8,9.1,0.7,19,5
5,USA,Gadsen Muni AWOS   ,33.97,-86.08,17.2,9.5,1.2,20,-11
5,USA,Huntsville Intl AP-Jones Field  ,34.65,-86.78,16.8,10.6,0.8,19,11
5,USA,Maxwell AFB    ,32.38,-86.35,19,10.2,0.7,19,9
5,USA,Mobile-Downtown AP    ,30.63,-88.07,20.4,8.2,0.7,22,-21
5,USA,Mobile-Rgnl AP    ,30.68,-88.25,20.2,8.3,0.7,21,2
5,USA,Montgomery-Dannelly Field    ,32.3,-86.4,19.1,9.3,1,17,-11
5,USA,Muscle Shoals Rgnl AP  ,34.75,-87.6,17.8,9.5,1,24,26
5,USA,Troy Air Field   ,31.87,-86.02,19.3,9.1,1.5,21,-8
5,USA,Tuscaloosa Muni AP   ,33.22,-87.62,18.4,9.8,1.4,21,1
5,USA,Batesville AWOS    ,35.73,-91.65,16.7,10.9,0.2,23,3
5,USA,Bentonville AWOS    ,36.35,-94.22,15.3,11.5,-1.8,22,53
5,USA,El Dorado-Goodwin Field   ,33.22,-92.82,19,11,1.5,19,-8
5,USA,Fayetteville-Drake Field    ,36,-94.17,16.7,11.1,1.8,24,-20
5,USA,Flippin AWOS    ,36.3,-92.47,16.6,11.1,0.9,25,3
5,USA,Fort Smith Rgnl AP  ,35.33,-94.37,16.9,12.1,1.1,23,9
5,USA,Harrison AP    ,36.27,-93.15,16.1,11,0.9,27,-6
5,USA,Hot Springs Mem AP  ,34.47,-93.1,17.7,11,0.3,25,8
5,USA,Jonesboro Muni AP   ,35.83,-90.65,16.1,12.7,2.1,22,7
5,USA,Little Rock-Adams Field   ,34.75,-92.23,17.7,11.2,1.1,22,0
5,USA,Little Rock AFB   ,34.92,-92.15,17.3,11.1,0,20,5
5,USA,Pine Bluff AP   ,34.17,-91.93,18.1,12.3,2,21,-14
5,USA,Rogers AWOS    ,36.37,-94.1,15.7,11.8,-0.7,27,38
5,USA,Siloam Spring AWOS   ,36.18,-94.48,16.2,11,-1,22,42
5,USA,Springdale Muni AP   ,36.18,-94.12,15.9,11.3,1.4,21,-13
5,USA,Stuttgart AWOS    ,34.6,-91.57,18.4,10.5,0.8,25,7
5,USA,Texarkana-Webb Field    ,33.45,-94,19.4,10.3,1.3,23,0
5,USA,Walnut Ridge AWOS   ,36.13,-90.92,16.5,11.4,0.9,21,-2
5,USA,Casa Grande AWOS   ,32.95,-111.77,24.4,11.6,1.3,16,-32
5,USA,Davis-Monthan AFB    ,32.17,-110.88,23.7,9.7,0.1,14,8
5,USA,Douglas-Bisbee Douglas Intl AP  ,31.47,-109.6,20.4,9.8,1.2,11,7
5,USA,Flagstaff-Pulliam AP    ,35.13,-111.67,11,11.2,-0.4,20,12
5,USA,Grand Canyon National Park AP ,35.95,-112.15,11.9,11.4,-0.3,21,4
5,USA,Kingman AWOS    ,35.27,-113.95,19.9,12.6,1,15,-33
5,USA,Luke AFB    ,33.55,-112.37,25,11.4,-0.1,18,12
5,USA,Page Muni AWOS   ,36.93,-111.45,18.5,13,1,12,-21
5,USA,Phoenix-Deer Valley AP   ,33.68,-112.08,24.7,11.5,0.2,21,1
5,USA,Phoenix-Sky Harbor Intl AP  ,33.45,-111.98,25.6,11.4,0.9,18,-22
5,USA,Prescott-Love Field    ,34.65,-112.42,16.2,11.2,-0.1,21,9
5,USA,Safford AWOS    ,32.82,-109.68,22.1,10.8,1.7,11,-6
5,USA,Scottsdale Muni AP   ,33.62,-111.92,24.9,11.7,0,20,7
5,USA,Show Low Muni AP  ,34.27,-110,15,10.3,0.7,15,-16
5,USA,Tucson Intl AP   ,32.13,-110.95,22.7,10.3,-0.1,19,7
5,USA,Winslow Muni AP   ,35.03,-110.72,16.3,12.4,-0.6,16,50
5,USA,Yuma Intl AP   ,32.67,-114.6,25.9,10,1.5,24,-29
5,USA,Yuma MCAS    ,32.65,-114.62,25.6,10,1.5,24,-24
5,USA,Alturas     ,41.5,-120.53,12.8,11.6,-2.1,18,40
5,USA,Arcata AP    ,40.98,-124.1,13.1,4.1,0.3,23,-6
5,USA,Bakersfield-Meadows Field    ,35.43,-119.05,21,10,1.1,22,-16
5,USA,Barstow Daggett AP   ,34.85,-116.8,21.7,11.3,1.2,17,-30
5,USA,Beale AFB    ,39.13,-121.43,19.2,10.8,1.9,19,-33
5,USA,Bishop AP    ,37.37,-118.35,17.2,11.7,-1.1,17,46
5,USA,Blue Canyon AP   ,39.3,-120.72,14.2,10.5,-0.6,29,1
5,USA,Blythe-Riverside County AP   ,33.62,-114.72,26.1,11.2,1.3,15,-29
5,USA,Burbank-Glendale-Passadena Bob Hope AP  ,34.2,-118.35,20.8,7,0.9,24,-9
5,USA,Camarillo AWOS    ,34.22,-119.08,18.5,5,0.3,23,15
5,USA,Camp Pendleton MCAS   ,33.3,-117.35,18.8,5.5,0.8,24,-24
5,USA,Carlsbad     ,33.13,-117.28,18.7,4.2,1,25,-41
5,USA,China Lake NAF   ,35.68,-117.68,20.9,12.1,0.9,15,-22
5,USA,Chino AP    ,33.97,-117.63,20.3,6.9,0.7,22,-30
5,USA,Chula Vista-Brown Field Muni AP ,32.58,-116.98,19.1,4.5,0.6,30,-36
5,USA,Concord-Buchanan Field    ,38,-122.05,17.5,7.6,1,24,13
5,USA,Crescent City-Jack McNamara Field  ,41.78,-124.23,13.3,4.1,0.2,23,7
5,USA,Edwards AFB    ,34.9,-117.87,18.4,10.7,-1.5,22,43
5,USA,Fairfield-Travis AFB    ,38.27,-121.93,17.7,8.6,1.4,16,-6
5,USA,Fresno Air Terminal   ,36.78,-119.72,20.5,10.8,1.1,19,-23
5,USA,Fullerton Muni AP   ,33.87,-117.98,20.8,6.4,-1,28,48
5,USA,Hawthorne-Jack Northrop Field   ,33.92,-118.33,19.6,4.5,0.1,30,0
5,USA,Hayward Air Terminal   ,37.67,-122.12,17.6,5.2,1.4,21,-7
5,USA,Imperial County AP   ,32.83,-115.58,25.7,10.5,1.1,18,-21
5,USA,Lancaster-Gen Wm Fox Field  ,34.73,-118.22,19.5,10.5,1.3,18,-19
5,USA,Lemoore NAS    ,36.33,-119.95,19.7,10.4,1,15,-23
5,USA,Livermore Muni AP   ,37.7,-121.82,17,7.5,1.2,18,-15
5,USA,Lompoc AWOS    ,34.67,-120.47,15.4,3.5,0.9,28,-8
5,USA,Long Beach-Daugherty Field   ,33.83,-118.17,20,5.4,0.8,26,-18
5,USA,Los Angeles Intl AP  ,33.93,-118.4,19.3,4.3,0.5,27,-20
5,USA,March AFB    ,33.9,-117.25,20.1,8.3,1.4,23,-33
5,USA,Merced-Macready Field    ,37.28,-120.52,19.7,9.2,0.9,13,-15
5,USA,Modesto Muni AP   ,37.63,-120.95,19.5,9.1,1.1,16,-11
5,USA,Montague-Siskiyou County AP   ,41.78,-122.47,14.8,10.9,-2,20,53
5,USA,Monterey NAF    ,36.6,-121.87,15.9,3.7,1.1,24,-5
5,USA,Mountain View-Moffett Field NAS  ,37.4,-122.05,17.5,5.7,1.7,27,-9
5,USA,Napa County AP   ,38.22,-122.28,16.2,6.3,0.6,15,-8
5,USA,Needles AP    ,34.77,-114.62,25.7,12,0.1,15,7
5,USA,Oakland Intl AP   ,37.72,-122.22,16.4,4.8,0.7,19,5
5,USA,Oxnard AP    ,34.2,-119.2,18.2,4.4,0.8,26,-4
5,USA,Palm Springs-Thermal AP   ,33.63,-116.17,25.3,11,0.9,17,-19
5,USA,Palm Springs Intl AP  ,33.83,-116.5,26.1,10.1,0.1,18,6
5,USA,Palmdale AP    ,34.63,-118.08,19.5,11.1,0.8,19,-27
5,USA,Paso Robles Muni AP  ,35.67,-120.63,18.1,7.5,0.9,17,-3
5,USA,Point Mugu NAS   ,34.12,-119.12,17.7,4.2,0.5,30,-10
5,USA,Porterville AWOS    ,36.03,-119.07,19.9,9.7,-0.7,20,43
5,USA,Red Bluff Muni AP  ,40.15,-122.25,19.2,11.3,-0.8,22,29
5,USA,Redding Muni AP   ,40.52,-122.32,19.3,10.6,-0.2,21,12
5,USA,Riverside Muni AP   ,33.95,-117.45,20.5,7,-0.9,24,49
5,USA,Sacramento Exec AP   ,38.5,-121.5,18.1,8.8,1.3,17,-19
5,USA,Sacramento Metro AP   ,38.7,-121.58,18.8,9.3,0.9,14,-4
5,USA,Salinas Muni AP   ,36.67,-121.6,16.2,4.8,0.1,27,9
5,USA,San Diego-Lindbergh Field   ,32.73,-117.17,20.1,4.7,1,28,-21
5,USA,San Diego-Miramar NAS   ,32.87,-117.13,19.3,5.8,1,32,-36
5,USA,San Diego-Montgomery Field   ,32.82,-117.13,19.5,5,1.5,29,-31
5,USA,San Diego-North Island NAS  ,32.7,-117.2,19.4,4.3,0.7,30,-21
5,USA,San Francisco Intl AP  ,37.62,-122.4,16.2,4,1.1,21,3
5,USA,San Jose Intl AP  ,37.37,-121.93,17.8,6.2,1.1,22,-4
5,USA,San Luis Obispo AP  ,35.23,-120.63,17,4.9,0.8,21,2
5,USA,Sandberg     ,34.75,-118.72,16.4,9,0,25,2
5,USA,Santa Ana-John Wayne AP  ,33.68,-117.87,20.1,4.7,0.9,23,-21
5,USA,Santa Barbara Muni AP  ,34.43,-119.85,17.7,5,1.2,20,-18
5,USA,Santa Maria Public AP  ,34.92,-120.47,16.2,4.5,0.3,24,7
5,USA,Santa Monica Muni AP  ,34.02,-118.45,19.4,4.5,0.5,32,-40
5,USA,Santa Rosa AWOS   ,38.52,-122.82,16.9,6.8,0.7,16,-14
5,USA,South Lake Tahoe-Lake Tahoe AP ,38.9,-120,10.2,10.7,-0.1,22,1
5,USA,Stockton Metro AP   ,37.9,-121.23,19,9,1.4,15,-13
5,USA,Truckee Tahoe AP   ,39.32,-120.13,10.4,10.4,-1.9,27,45
5,USA,Twentynine Palms    ,34.3,-116.17,23.1,11.6,1.3,18,-32
5,USA,Ukiah Muni AP   ,39.13,-123.2,17.7,8.6,1.3,19,-32
5,USA,Van Nuys AP   ,34.22,-118.48,21.1,6.7,0,22,16
5,USA,Visalia Muni AWOS   ,36.32,-119.4,19.3,11.5,1.8,13,-27
5,USA,Yuba County AP   ,39.1,-121.57,19.1,9.9,1.1,16,-22
5,USA,Akron-Washington County AP   ,40.17,-103.23,12.5,12.8,-0.2,18,9
5,USA,Alamosa Muni AP   ,37.43,-105.87,9.2,12.9,0.2,22,7
5,USA,Aspen-Pitkin County-Sardy Field   ,39.22,-106.87,7.4,11,-0.9,24,7
5,USA,Aurora-Buckley Field ANGB   ,39.72,-104.75,12.6,12.3,-1.8,20,40
5,USA,Boulder-Broomfield-Jefferson County AP   ,40.13,-105.24,12.9,12.3,1.1,19,-34
5,USA,Colorado Springs-Peterson Field   ,38.82,-104.72,12.2,12.1,0.2,19,9
5,USA,Cortez-Montezuma County AP   ,37.3,-108.63,13.4,12.6,0.1,14,9
5,USA,Craig Moffat AP   ,40.5,-107.53,7.3,12.5,-1.3,31,24
5,USA,Denver Intl AP   ,39.83,-104.65,13.5,12.5,-1.3,20,31
5,USA,Durango-La Plata County AP  ,37.15,-107.75,9.6,12.6,-0.5,27,48
5,USA,Eagle County Rgnl AP  ,39.65,-106.92,8.4,12.4,-0.2,25,12
5,USA,Fort Collins AWOS   ,40.45,-105.02,11.4,12.9,-0.2,17,7
5,USA,Golden-NREL     ,39.74,-105.18,11.3,10.9,-0.5,26,5
5,USA,Grand Junction-Walker Field   ,39.13,-108.53,14.7,13.7,1.1,17,-20
5,USA,Greeley-Weld County AWOS   ,40.43,-104.63,11.5,12.9,-1.4,20,44
5,USA,Gunnison County AWOS   ,38.53,-106.93,7.1,11.7,-0.8,25,27
5,USA,Hayden-Yampa AWOS    ,40.48,-107.22,7.7,12.3,-1.3,30,26
5,USA,La Junta Muni AP  ,38.05,-103.53,14.8,13.6,0,18,7
5,USA,Lamar Muni AP   ,38.07,-102.68,14.3,13.8,-1.7,20,40
5,USA,Leadville-Lake County AP   ,39.22,-106.32,4.3,9.1,-1.5,32,37
5,USA,Limon Muni AP   ,39.18,-103.72,11.4,12.3,-1.6,19,45
5,USA,Montrose County AP   ,38.5,-107.9,11.8,12.7,0.8,23,-14
5,USA,Pueblo Mem AP   ,38.28,-104.5,14.4,12.9,0.9,17,-13
5,USA,Rifle-Garfield County Rgnl AP  ,39.53,-107.72,11.8,12.7,1.6,19,-8
5,USA,Trinidad-Las Animas County AP  ,37.27,-104.33,14.2,11.8,0.9,21,-28
5,USA,Bridgeport-Sikorsky Mem AP   ,41.18,-73.15,12.3,11.5,0.4,31,39
5,USA,Danbury Muni AP   ,41.37,-73.48,11.4,11.1,-1.5,30,-26
5,USA,Groton-New London AP   ,41.33,-72.05,11.6,9.9,0.9,31,-10
5,USA,Hartford-Bradley Intl AP   ,41.93,-72.68,11.3,12.6,0.1,25,1
5,USA,Hartford-Brainard Field    ,41.73,-72.65,12.1,11.5,-0.1,27,-3
5,USA,New Haven-Tweed AP   ,41.27,-72.88,12.3,10.8,0.1,30,10
5,USA,Oxford AWOS    ,41.48,-73.13,11,11.9,-0.5,32,-3
5,USA,Dover AFB    ,39.13,-75.47,13.6,11.3,-0.3,27,7
5,USA,Wilmington-New Castle County AP  ,39.67,-75.6,13.5,12,0.6,22,2
5,USA,Crestview-Bob Sikes AP   ,30.78,-86.52,20.2,7.8,0.7,27,-1
5,USA,Daytona Beach Intl AP  ,29.18,-81.07,22.1,6.3,0.8,24,9
5,USA,Fort Lauderdale Executive AP  ,26.2,-80.17,24.7,4.2,0.6,24,13
5,USA,Fort Lauderdale Intl AP  ,26.07,-80.15,25.4,4.4,0.5,22,10
5,USA,Fort Myers-Page Field   ,26.58,-81.87,24.6,4.8,0.9,27,26
5,USA,Fort Pierce-St Lucie County AP ,27.48,-80.37,22.5,5.4,0.7,24,1
5,USA,Fort Walton Beach-Hurlburt Field  ,30.42,-86.68,20.3,9,0.8,20,18
5,USA,Gainesville Rgnl AP   ,29.7,-82.28,21,7.3,1.3,19,-3
5,USA,Homestead AFB    ,25.48,-80.38,24.7,5.4,1.1,26,14
5,USA,Jacksonville-Craig Field    ,30.33,-81.52,21.3,6.7,0.1,21,6
5,USA,Jacksonville Intl AP   ,30.5,-81.7,20.7,7.5,0.6,22,5
5,USA,Jacksonville NAS    ,30.23,-81.67,22.1,7.2,1.2,15,0
5,USA,Key West Intl AP  ,24.55,-81.75,26.2,4.3,0.6,30,14
5,USA,Key West NAS   ,24.58,-81.68,26.2,4.5,0.7,28,11
5,USA,Lakeland Linder Rgnl AP  ,27.98,-82.02,22.6,7.1,1.2,22,15
5,USA,MacDill AFB    ,27.85,-82.52,22.9,7.1,1.1,24,28
5,USA,Marathon AP    ,24.73,-81.05,26.9,4.5,0.9,25,8
5,USA,Mayport NS    ,30.4,-81.42,21.8,7,1,24,12
5,USA,Melbourne Rgnl AP   ,28.12,-80.65,23.4,4.9,0.9,23,-1
5,USA,Miami-Kendall-Tamiami Executive AP   ,25.65,-80.43,24,4.5,0.4,24,6
5,USA,Miami-Opa Locka AP   ,25.9,-80.28,24.8,4.8,0.5,34,3
5,USA,Miami Intl AP   ,25.82,-80.3,25.1,4.3,0.7,30,12
5,USA,Naples Muni AP   ,26.15,-81.77,23.8,5,0.6,24,7
5,USA,NASA Shuttle Landing Facility  ,28.62,-80.72,22.6,6.3,0.9,30,26
5,USA,Ocala Muni AWOS   ,29.17,-82.22,21.7,7.1,1.6,17,-8
5,USA,Orlando-Sanford AP    ,28.78,-81.25,22.6,6.4,-0.1,26,-1
5,USA,Orlando Executive AP   ,28.55,-81.33,23.2,6.4,1.8,22,6
5,USA,Orlando Intl AP   ,28.43,-81.33,22.7,5.7,0.8,25,8
5,USA,Panama City-Bay County AP  ,30.2,-85.68,21.5,7.8,0.3,25,-5
5,USA,Pensacola-Forest Sherman NAS   ,30.35,-87.32,20.9,8.3,0.9,19,13
5,USA,Pensacola Rgnl AP   ,30.48,-87.18,21.4,7.6,0.7,24,16
5,USA,Sarasota-Bradenton Intl AP   ,27.38,-82.55,23.1,5.9,1.4,30,17
5,USA,Southwest Florida Intl AP  ,26.53,-81.75,23.6,4.9,0.9,23,-9
5,USA,St Petersburg-Albert Whitted Station  ,27.77,-82.63,24.1,6.3,0.8,33,28
5,USA,St Petersburg-Clearwater Intl AP  ,27.9,-82.68,23.2,7,1.5,31,25
5,USA,Tallahassee Rgnl AP   ,30.38,-84.37,20.2,8.1,0.8,19,-8
5,USA,Tampa Intl AP   ,27.97,-82.53,23.1,6.2,1.1,23,9
5,USA,Tyndall AFB    ,30.07,-85.58,19.8,8.5,0.6,25,1
5,USA,Valparaiso-Elgin AFB    ,30.48,-86.52,19.8,9.1,0.5,23,17
5,USA,Vero Beach Muni AP  ,27.65,-80.42,23.7,4.6,0.7,23,12
5,USA,West Palm Beach Intl AP ,26.68,-80.1,24.2,4.8,0.8,29,15
5,USA,Whiting Field NAS   ,30.72,-87.02,20.1,8.1,0.3,24,15
5,USA,Albany-Dougherty County AP   ,31.53,-84.18,20.1,8.2,0.6,24,7
5,USA,Alma-Bacon County AP   ,31.53,-82.5,19.7,9.3,1.3,18,-9
5,USA,Athens-Ben Epps AP   ,33.95,-83.33,17.8,9.4,0.8,18,0
5,USA,Atlanta-Hartsfield-Jackson Intl AP   ,33.63,-84.43,17.8,9.9,1.1,18,-7
5,USA,Augusta-Bush-Field     ,33.37,-81.97,18.4,9.7,0.7,18,-11
5,USA,Brunswick-Golden Isles AP   ,31.25,-81.47,19.9,9.2,0.5,19,24
5,USA,Brunswick-Malcolm McKinnon AP   ,31.15,-81.38,21.1,7.3,1.1,24,7
5,USA,Columbus Metro AP   ,32.52,-84.95,19.6,9.4,0.9,22,-8
5,USA,Dekalb Peachtree AP   ,33.87,-84.3,16.9,10.4,1.2,21,-14
5,USA,Fort Benning-Lawson Field   ,32.35,-85,17.6,10.4,0.6,16,-1
5,USA,Fulton County AP   ,33.77,-84.52,17.3,9.5,1.8,16,-18
5,USA,Macon-Middle Georgia Rgnl AP  ,32.68,-83.65,18.9,9.4,1,19,-2
5,USA,Marietta-Dobbins AFB    ,33.92,-84.52,15.9,10.6,0.2,21,12
5,USA,Rome-Richard B Russell AP  ,34.35,-85.17,17.3,10.7,1.6,23,-28
5,USA,Savannah-Hunter AAF    ,32,-81.15,19.3,9.4,1,20,-6
5,USA,Savannah Intl AP   ,32.12,-81.2,20,8.7,0.8,20,15
5,USA,Valdosta-Moody AFB    ,30.97,-83.2,19.6,8.8,0.5,18,-3
5,USA,Valdosta Rgnl AP   ,30.78,-83.28,21,8.4,0.8,18,4
5,USA,Warner Robins AFB   ,32.63,-83.6,17.9,10.5,0.9,15,-2
5,USA,Andersen-AFB,13.57,144.92,27.4,1.1,0,15,13
5,USA,GuamWfo,13.48,144.8,27.6,0.8,0,16,17
5,USA,Barbers Point NAS   ,21.32,-158.07,26.9,3.4,0.3,30,10
5,USA,Hilo Intl AP   ,19.72,-155.05,23.9,1.5,0.2,53,5
5,USA,Honolulu Intl AP   ,21.32,-157.93,27.2,2.6,0.1,37,-13
5,USA,Kahului AP    ,20.9,-156.43,24.7,1.9,0.3,44,3
5,USA,Kailua-Kaneohe Bay MCAS   ,21.45,-157.78,27,2.6,0.1,43,-12
5,USA,Kapalua-West Maui AP   ,20.95,-156.63,25.9,2.2,0.2,34,16
5,USA,Keahole-Kona Intl AP   ,19.73,-156.05,25.7,1.6,0.3,39,4
5,USA,Lanai AP    ,20.78,-156.95,23.9,2.2,0.3,27,22
5,USA,Lihue AP    ,21.98,-159.33,25.9,2.6,0.4,40,-9
5,USA,Molokai AWOS    ,21.15,-157.1,25.7,2.4,0.3,32,-5
5,USA,Algona Muni AP   ,43.08,-94.27,10.2,13.5,-0.1,25,1
5,USA,Atlantic Muni AP   ,41.4,-95.05,10.8,14,0.3,22,9
5,USA,Boone Muni AP   ,42.05,-93.85,10.6,13.8,-0.6,25,12
5,USA,Burlington Muni AP   ,40.78,-91.12,13.2,14.6,1.1,23,26
5,USA,Carroll Muni AP   ,42.05,-94.78,11,13.7,0.5,25,3
5,USA,Cedar Rapids Muni AP  ,41.88,-91.72,10.8,13.6,0.7,25,39
5,USA,Chariton Muni AP   ,41.03,-93.37,11.9,14.5,0.1,24,-4
5,USA,Charles City Muni AP  ,43.07,-92.62,10.2,13.6,0.3,29,16
5,USA,Clarinda Muni AP   ,40.72,-95.03,12.6,14.5,1,23,3
5,USA,Clinton Muni AWOS   ,41.83,-90.33,10.9,14.4,1.3,24,-29
5,USA,Council Bluffs Muni AP  ,41.27,-95.77,12.1,13.4,0.7,24,16
5,USA,Creston Muni AP   ,41.02,-94.37,11.6,13.7,1,19,4
5,USA,Decorah Muni AP   ,43.28,-91.73,11.8,14.1,1,23,-8
5,USA,Denison Muni AP   ,41.98,-95.38,11.1,14.4,0.7,27,-15
5,USA,Des Moines Intl AP  ,41.53,-93.67,11.4,14.6,0,24,6
5,USA,Dubuque Rgnl AP   ,42.4,-90.7,9.4,13.4,-0.7,28,11
5,USA,Estherville Muni AP   ,43.4,-94.75,8.5,14,-1,30,15
5,USA,Fairfield Muni AP   ,41.05,-91.98,11.8,14,0.6,23,14
5,USA,Fort Dodge AWOS   ,42.55,-94.18,10.4,14.4,0,25,5
5,USA,Fort Madison Muni AP  ,40.67,-91.33,13.3,13,1.3,26,-2
5,USA,Keokuk Muni AP   ,40.47,-91.43,13.2,13.6,1.7,28,31
5,USA,Knoxville Muni AP   ,41.3,-93.12,12.4,14.4,1.2,27,6
5,USA,Le Mars Muni AP  ,42.78,-96.2,11.8,13.3,2.2,26,36
5,USA,Mason City Muni AP  ,43.15,-93.33,9,14.3,-0.5,27,0
5,USA,Monticello Muni AP   ,42.23,-91.17,10.6,13.8,0.9,26,28
5,USA,Muscatine Muni AP   ,41.37,-91.15,11.6,14,0.9,28,36
5,USA,Newton Muni AP   ,41.68,-93.02,11.3,13.3,1.3,24,7
5,USA,Oelwein Muni AP   ,42.68,-91.97,10.8,12.9,0.9,25,5
5,USA,Orange City Muni AP  ,42.98,-96.07,10.6,13.7,-0.4,21,12
5,USA,Ottumwa Industrial AP   ,41.1,-92.45,11.2,13.7,-0.1,25,0
5,USA,Red Oak Muni AP  ,41.02,-95.27,12,14.4,0.4,25,5
5,USA,Sheldon Muni AP   ,43.22,-95.83,10.8,12.9,1.1,21,-32
5,USA,Shenandoah Muni AP   ,40.75,-95.42,11.8,14.7,0.5,23,12
5,USA,Sioux City-Sioux Gateway AP  ,42.38,-96.38,10.7,14.3,0,22,6
5,USA,Spencer Muni AP   ,43.17,-95.15,8.8,13.7,-0.7,28,-3
5,USA,Storm Lake Muni AP  ,42.6,-95.23,10.4,13.7,-0.1,27,1
5,USA,Washington Muni AP   ,41.28,-91.67,11.4,13.8,0.1,27,8
5,USA,Waterloo Muni AP   ,42.55,-92.4,10,14.3,-0.7,27,-11
5,USA,Webster City Muni AP  ,42.43,-93.87,11.4,14.1,0.7,25,-6
5,USA,Boise Air Terminal   ,43.62,-116.21,13.6,12.2,1,18,-26
5,USA,Burley Muni AP   ,42.53,-113.77,12.5,12.6,-1.2,20,46
5,USA,Caldwell AWOS    ,43.63,-116.63,13.4,12.8,-1.2,16,46
5,USA,Coeur dAlene AWOS   ,47.77,-116.82,11,12,-1.2,17,45
5,USA,Hailey-Sun Valley AP   ,43.5,-114.3,10.8,13.6,-2.3,22,34
5,USA,Idaho Falls-Fanning Field   ,43.52,-112.07,9.9,13.3,-0.5,22,1
5,USA,Lewiston-Nez Perce County AP  ,46.37,-117.02,13.8,12.8,-1.8,19,41
5,USA,Malad City AP   ,42.15,-112.28,10.7,12,-1.8,20,43
5,USA,Mountain Home AFB   ,43.05,-115.87,12.7,12.8,-2.3,19,43
5,USA,Pocatello Muni AP   ,42.92,-112.57,10.9,13.2,0,19,6
5,USA,Salmon-Lemhi AWOS    ,45.12,-113.88,9.5,12.5,-0.9,20,35
5,USA,Soda Springs-Tigert AP   ,42.65,-111.58,7.4,11.9,-2.7,28,22
5,USA,Twin Falls-Magic Valley Rgnl AP-Joslin Field,42.55,-114.35,12.5,12.5,-2,16,42
5,USA,Aurora Muni AP   ,41.77,-88.47,11,13.2,0.7,26,9
5,USA,Belleville-Scott AFB    ,38.55,-89.85,13.6,12.6,-0.5,22,7
5,USA,Bloomington Normal-Central Illinois Rgnl AP ,40.47,-88.92,11.3,13.2,-1,24,-18
5,USA,Cahokia AP    ,38.57,-90.15,14.8,11.9,1.4,24,-12
5,USA,Carbondale-Southern Illinois AP   ,37.77,-89.25,15.6,12.4,0.8,23,13
5,USA,Chicago-Midway AP    ,41.78,-87.75,12.5,13.4,1,32,11
5,USA,Chicago-OHare Intl AP   ,41.98,-87.92,11.1,13.4,0.7,25,30
5,USA,Decatur AP    ,39.83,-88.87,12.7,13,1.3,22,-12
5,USA,Du Page AP   ,41.92,-88.25,11.7,12.6,0.6,22,-20
5,USA,Marion-Williamson County Rgnl AP  ,37.75,-89.02,14.6,11.6,-1,25,8
5,USA,Moline-Quad City Intl AP  ,41.47,-90.52,11.1,14,0,24,14
5,USA,Mount Vernon AWOS   ,38.32,-88.87,14.7,12.2,0.1,28,0
5,USA,Peoria-Greater Peoria AP   ,40.67,-89.68,11.3,13.7,0.9,22,40
5,USA,Quincy Muni AP   ,39.93,-91.2,13,12.7,1.7,24,12
5,USA,Rockford-Greater Rockford AP   ,42.2,-89.1,9.9,14.1,-0.2,26,5
5,USA,Springfield-Capital AP    ,39.85,-89.68,12.9,13.4,1.3,23,39
5,USA,Sterling-Rock Falls-Whiteside County AP  ,41.75,-89.67,11.7,13.1,1.1,26,26
5,USA,University of Illinois-Willard AP  ,40.06,-88.37,12.4,13.3,0.6,23,3
5,USA,Waukegan Rgnl AP   ,42.42,-87.87,9.9,12.8,-0.6,30,29
5,USA,Delaware County-Johnson Field   ,40.23,-85.4,12.4,12.8,-0.1,29,-7
5,USA,Evansville Rgnl AP   ,38.05,-87.53,14.9,11.9,0.7,21,13
5,USA,Fort Wayne Intl AP  ,41,-85.2,10.8,13.5,0,25,2
5,USA,Grissom AFB    ,40.65,-86.15,11.5,12.7,-1.2,27,-19
5,USA,Huntingburg Muni AP   ,38.25,-86.95,15.5,11,0.9,24,-32
5,USA,Indianapolis Intl AP   ,39.72,-86.27,12.5,13.3,0.7,20,24
5,USA,Lafayette-Purdue University AP   ,40.42,-86.93,12.1,13,1.3,26,23
5,USA,Monroe County AP   ,39.13,-86.62,13.2,12.2,0.9,23,-2
5,USA,South Bend-Michiana Rgnl AP  ,41.7,-86.33,11.6,13,0.2,23,3
5,USA,Terre Haute-Hulman Rgnl AP  ,39.45,-87.3,13.7,12.7,1.2,26,7
5,USA,Chanute-Martin Johnson AP   ,37.67,-95.48,15.6,12.9,2.7,19,-8
5,USA,Concordia-Blosser Muni AP   ,39.55,-97.65,14.2,13.6,0.5,22,7
5,USA,Dodge City Rgnl AP  ,37.77,-99.97,14,12.8,0.6,22,-8
5,USA,Emporia Muni AP   ,38.33,-96.18,13.2,14.2,0.9,20,2
5,USA,Fort Riley-Marshall AAF   ,39.05,-96.77,15.2,12.3,0.8,25,-10
5,USA,Garden City Muni AP  ,37.93,-100.72,14.4,13.2,-0.6,18,11
5,USA,Goodland-Renner Field    ,39.37,-101.7,12.9,13.7,1.2,17,-14
5,USA,Great Bend AWOS   ,38.35,-98.87,14.2,12.5,0.3,24,2
5,USA,Hays Muni AWOS   ,38.85,-99.27,14.2,12.9,1.5,25,-34
5,USA,Hill City Muni AP  ,39.38,-99.83,12.8,12.6,-1.1,25,-7
5,USA,Hutchinson Muni AP   ,38.07,-97.87,15,12.2,1.1,19,1
5,USA,Liberal Muni AP   ,37.03,-100.97,15.5,12.9,-1,20,42
5,USA,Manhattan Rgnl AP   ,39.13,-96.67,14.3,13.3,0.7,20,-7
5,USA,Newton AWOS    ,38.05,-97.28,14.1,12.5,0.7,29,-9
5,USA,Olathe-Johnson County Executive AP  ,38.85,-94.73,14.8,12.2,1,27,-4
5,USA,Olathe-Johnson County Industrial AP  ,38.83,-94.88,14.4,12.8,0.8,19,-13
5,USA,Russell Muni AP   ,38.88,-98.82,13.9,12.8,0.3,22,11
5,USA,Salina Muni AP   ,38.82,-97.67,15.1,13.2,0.7,28,11
5,USA,Topeka-Forbes AFB    ,38.95,-95.67,14.3,12.3,1.3,20,1
5,USA,Topeka-Phillip Billard Muni AP  ,39.07,-95.63,14.1,12.6,0.9,20,3
5,USA,Wichita-Col Jabara Field   ,37.75,-97.22,14.6,12.8,1.7,20,-19
5,USA,Wichita-McConnell AFB    ,37.62,-97.27,15,13.3,-0.1,24,-1
5,USA,Wichita-Mid Continent AP   ,37.65,-97.43,15.1,11.9,0.7,24,-13
5,USA,Bowling Green-Warren County AP  ,36.98,-86.43,15.3,11.9,1.3,28,3
5,USA,Cincinnati-Northern Kentucky AP   ,39.05,-84.67,13.2,12,0.8,20,28
5,USA,Fort Campbell AAF   ,36.67,-87.48,15.4,12.2,0.2,25,11
5,USA,Fort Knox-Godman AAF   ,37.9,-85.97,14.4,11.7,-0.1,24,2
5,USA,Henderson City County AP  ,37.82,-87.68,13.8,11.5,-0.2,23,5
5,USA,Jackson-Julian Carroll AP   ,37.58,-83.32,15.6,10.3,0.6,22,35
5,USA,Lexington-Bluegrass AP    ,38.03,-84.6,14,11.9,1,21,15
5,USA,London-Corbin-Magee Field    ,37.08,-84.08,14.4,11,1.7,23,7
5,USA,Louisville-Bowman Field    ,38.23,-85.67,15.6,11.2,0.8,19,13
5,USA,Louisville-Standiford Field    ,38.18,-85.73,14.9,12,0.6,22,23
5,USA,Paducah-Barkley Rgnl AP   ,37.05,-88.77,15.9,10.7,0.1,21,2
5,USA,Somerset-Pulaski County AWOS   ,38,-84.6,16.1,11.8,1,19,30
5,USA,Alexandria-England AFB    ,31.32,-92.55,20.6,8.7,1.1,21,4
5,USA,Alexandria-Esler Rgnl AP   ,31.4,-92.3,19.7,9.1,1.2,21,-27
5,USA,Barksdale AFB    ,32.5,-93.67,19,10,0.7,22,42
5,USA,Baton Rouge-Ryan AP   ,30.53,-91.15,20.4,8.6,0.9,17,1
5,USA,Fort Polk    ,31.05,-93.18,19.7,9.2,1.2,19,11
5,USA,Houma-Terrebonne AP    ,29.57,-90.67,21,8.2,1.1,22,17
5,USA,Lafayette RgnlAP    ,30.2,-91.98,20.7,8.2,0.2,28,8
5,USA,Lake Charles AP   ,30.22,-93.17,20.8,9.1,1.9,17,-6
5,USA,Lake Charles Rgnl AP  ,30.12,-93.23,20.5,8.6,0.9,20,7
5,USA,Monroe Rgnl AP   ,32.52,-92.03,19.4,9.6,0.8,22,-20
5,USA,New Iberia    ,30.03,-91.88,20.5,8.6,1.3,24,-17
5,USA,New Orleans-Alvin Callender Field  ,29.82,-90.02,21.3,7.4,0.2,22,1
5,USA,New Orleans-Lakefront AP   ,30.05,-90.03,21.7,8,0,23,8
5,USA,New Orleans Intl AP  ,30,-90.25,21.3,8,1,21,10
5,USA,Patterson Mem AP   ,29.72,-91.33,20.9,7.9,-0.8,21,43
5,USA,Shreveport Downtown    ,32.53,-93.75,19.4,11.2,1.6,23,-17
5,USA,Shreveport Rgnl AP   ,32.45,-93.82,19.3,10,1.6,19,-5
5,USA,Barnstable-Boardman Poland AP   ,41.67,-70.28,11.7,9.8,0,34,-7
5,USA,Beverly Muni AP   ,42.58,-70.92,10.2,11.7,-0.2,32,-1
5,USA,Boston-Logan Intl AP   ,42.37,-71.02,11.5,11.8,0.1,29,6
5,USA,Chicopee Falls-Westover AFB   ,42.2,-72.53,10.8,11.6,-0.6,29,-5
5,USA,Lawrence Muni AP   ,42.72,-71.12,11.2,11.3,0.3,28,-1
5,USA,Marthas Vineyard AP   ,41.4,-70.62,11.8,9.3,0,34,5
5,USA,Nantucket Mem AP   ,41.25,-70.07,12,8.9,0.5,41,-29
5,USA,New Bedford Rgnl AP  ,41.67,-70.95,12,10.6,-0.8,31,-23
5,USA,North Adams AP   ,42.7,-73.17,10.3,11.6,0.8,29,7
5,USA,Norwood Mem AP   ,42.18,-71.18,11,11.9,-0.2,31,6
5,USA,Otis ANGB    ,41.65,-70.52,11.3,10.3,-1.7,32,35
5,USA,Plymouth Muni AP   ,41.92,-70.73,11.5,10.2,0.7,31,8
5,USA,Provincetown AWOS    ,42.07,-70.22,11.9,10.1,-0.7,39,30
5,USA,Westfield-Barnes Muni AP   ,42.15,-72.72,10.6,12.5,0.4,30,-5
5,USA,Worcester Rgnl AP   ,42.27,-71.88,9.2,12.3,-1,29,-14
5,USA,Andrews AFB    ,38.82,-76.87,14.3,11,-0.5,25,5
5,USA,Baltimore-Washington Intl AP   ,39.17,-76.68,14.4,11.8,0.5,22,-2
5,USA,Hagerstown-Washington County Rgnl AP  ,39.7,-77.73,14,11.5,0.6,25,7
5,USA,Patuxent River NAS   ,38.3,-76.42,16.3,10.1,-0.1,24,1
5,USA,Salisbury-Wicomico County Rgnl AP  ,38.33,-75.52,15.5,10.2,0.5,23,-2
5,USA,Auburn-Lewiston Muni AP   ,44.05,-70.28,8.4,11.6,-0.9,29,8
5,USA,Augusta AP    ,44.32,-69.8,9,12.6,0.5,34,-5
5,USA,Bangor Intl AP   ,44.8,-68.82,8.7,12.7,-1.5,32,5
5,USA,Bar Harbor AWOS   ,44.45,-68.37,7.5,10.4,-1.2,37,15
5,USA,Brunswick NAS    ,43.9,-69.93,8.8,12.2,-0.6,32,36
5,USA,Caribou Muni AP   ,46.87,-68.03,5.6,12,-2.3,37,27
5,USA,Edmundston-Northern Aroostook Rgnl AP  ,47.28,-68.32,5.7,11.8,-2.2,33,36
5,USA,Houlton Intl AP   ,46.12,-67.8,7,12.6,-1.1,33,12
5,USA,Millinocket Muni AP   ,45.65,-68.68,8.5,12.5,-0.8,30,16
5,USA,Portland Intl Jetport   ,43.65,-70.3,8.5,12,-0.9,30,11
5,USA,Presque Isle Muni AP  ,46.68,-68.05,6.4,11.5,-1.6,34,20
5,USA,Rockland-Knox AWOS    ,44.07,-69.1,8.6,11,-0.6,37,-5
5,USA,Sanford Muni AWOS   ,43.4,-70.72,8.4,11,-1.6,28,-8
5,USA,Waterville AWOS    ,44.53,-69.68,8.2,12.7,-2,30,12
5,USA,Wiscasset AP    ,43.97,-69.72,9.6,11.4,-0.1,34,4
5,USA,Alpena County Rgnl AP  ,45.07,-83.58,7.7,12.1,-1,30,14
5,USA,Ann Arbor Muni AP  ,42.22,-83.75,10.7,11.7,-1,31,-33
5,USA,Battle Creek-Kellogg AP   ,42.3,-85.25,11,12.4,1,26,13
5,USA,Benton Harbor-Ross Field-Twin Cities AP ,42.13,-86.43,11.2,12.6,0.9,24,-23
5,USA,Cadillac-Wexford County AP   ,44.28,-85.42,8.6,12.1,-2,31,3
5,USA,Chippewa County Intl AP  ,46.25,-84.47,6,11.2,-1.9,35,21
5,USA,Detroit-City AP    ,42.4,-83,11.1,13.3,-1.2,30,-13
5,USA,Detroit-Willow Run AP   ,42.23,-83.53,10.8,13.8,-0.1,28,17
5,USA,Detroit Metro AP   ,42.22,-83.35,10.3,13.2,-0.7,27,-10
5,USA,Escanaba AWOS    ,45.75,-87.03,6.5,11.3,-2,34,16
5,USA,Flint-Bishop Intl AP   ,42.97,-83.75,9.7,13,-0.6,26,-14
5,USA,Grand Rapids-Kent County Intl AP ,42.88,-85.52,9.9,13,-1,26,-17
5,USA,Hancock-Houghton County AP   ,47.17,-88.5,6.6,12,-1.9,32,32
5,USA,Houghton-Lake Roscommon County AP  ,44.37,-84.68,8.1,12.7,-1.4,28,11
5,USA,Howell-Livingston County AP   ,42.63,-83.98,11.3,13.1,-0.2,26,13
5,USA,Iron Mountain-Ford Field   ,45.82,-88.12,8.5,13.2,-1.2,26,10
5,USA,Ironwood AWOS    ,46.53,-90.13,7,12.7,-2,32,24
5,USA,Jackson-Reynolds Field    ,42.27,-84.47,11,13,0.5,25,18
5,USA,Kalamazoo-Battle Creek Intl AP  ,42.23,-85.55,11,12.3,0.8,28,33
5,USA,Lansing-Capital City AP   ,42.78,-84.58,9.8,13.1,-0.9,25,-18
5,USA,Manistee AWOS    ,44.27,-86.25,9.4,12.9,-1.2,29,12
5,USA,Menominee AWOS    ,45.13,-87.63,8.6,12.8,-1.1,37,17
5,USA,Mount Clemens-Selfridge ANGB   ,42.62,-82.83,11.4,10.3,-1.5,28,21
5,USA,Muskegon County AP   ,43.17,-86.23,9.5,12.8,-1.3,30,-1
5,USA,Oakland County Intl AP  ,42.67,-83.42,11.2,12.7,0,30,7
5,USA,Oscoda-Wurtsmith AFB    ,44.45,-83.4,9.3,11.9,-0.9,29,1
5,USA,Pellston-Emmet County AP   ,45.57,-84.78,9,12.3,-0.6,25,14
5,USA,Rhinelander-Oneida County AP   ,45.63,-89.47,7.8,13.5,-1.1,28,7
5,USA,Saginaw-Tri City Intl AP  ,43.53,-84.08,9.8,12.3,0.1,29,6
5,USA,Sault Ste Marie-Sanderson Field  ,46.47,-84.35,6.2,11.5,-1.5,35,18
5,USA,St Clair County Intl AP ,42.92,-82.53,10.9,12.9,-0.6,25,-14
5,USA,Traverse City-Cherry Capital AP  ,44.73,-85.58,8.4,12.5,-1.2,31,12
5,USA,Aitkin AWOS    ,46.55,-93.68,7,12.4,-1.2,35,17
5,USA,Albert Lea AWOS   ,43.68,-93.37,10.2,14.1,-1.3,31,8
5,USA,Alexandria Muni AP   ,45.88,-95.4,7.9,14.2,-0.4,30,4
5,USA,Austin Muni AP   ,43.67,-92.93,9.1,13.9,-0.6,27,47
5,USA,Baudette Intl AP   ,48.72,-94.6,6.9,12.5,-1.1,29,14
5,USA,Bemidji Muni AP   ,47.5,-94.93,6.9,13.4,-1.6,32,11
5,USA,Benson Muni AP   ,45.32,-95.65,8.3,14,-2.4,30,28
5,USA,Brainerd-Crow Wing County AP  ,46.4,-94.13,7.8,12.9,-0.6,26,4
5,USA,Cambridge Muni AP   ,45.57,-93.27,8.2,13.6,-1,25,24
5,USA,Cloquet AWOS    ,46.7,-92.5,6.8,12.3,-2.2,29,37
5,USA,Crane Lake AWOS   ,46.27,-92.57,6.1,12.6,-1.5,36,23
5,USA,Crookston Muni Field   ,47.85,-96.62,6.8,13.4,-2.2,26,25
5,USA,Detroit Lakes AWOS   ,46.83,-95.88,7.5,13.8,-1.5,30,19
5,USA,Duluth Intl AP   ,46.83,-92.22,6.1,12,-1.6,31,25
5,USA,Edin Prairie-Flying Cloud AP  ,44.82,-93.45,9.6,14.7,-1.3,28,16
5,USA,Ely Muni AP   ,47.82,-91.83,6.9,12.5,-1,28,16
5,USA,Eveleth Muni AWOS   ,47.4,-92.5,6.2,12.8,-2.1,30,24
5,USA,Fairmont Muni AWOS   ,43.65,-94.42,8.9,13.8,-1.6,29,15
5,USA,Faribault Muni AWOS   ,44.33,-93.32,9.6,13.1,-0.8,24,-13
5,USA,Fergus Falls AWOS   ,46.28,-96.15,8.7,14,-1.6,30,23
5,USA,Fosston AWOS    ,47.58,-95.77,6.6,13.2,-1.7,32,29
5,USA,Glenwood AWOS    ,45.65,-95.32,8,13.9,-1.8,26,27
5,USA,Grand Rapids AWOS   ,47.22,-93.52,7,12.9,-2.2,30,7
5,USA,Hallock     ,48.78,-96.95,7.3,14.1,-1.7,27,12
5,USA,Hibbing-Chisholm Hibbing AP   ,47.38,-92.85,5.9,12.7,-1.4,37,35
5,USA,Hutchinson AWOS    ,44.87,-94.38,8.1,14,-2.8,31,23
5,USA,International Falls Intl AP  ,48.57,-93.4,5.8,12.9,-1.8,31,15
5,USA,Litchfield Muni AP   ,45.1,-94.5,9.8,13.7,1.3,21,42
5,USA,Little Falls AWOS   ,45.95,-94.35,7.1,13.5,-2.3,27,23
5,USA,Mankato AWOS    ,44.22,-93.92,9.2,13.7,-1.7,28,6
5,USA,Marshall Muni-Ryan Field AWOS  ,44.45,-95.82,9,13.8,-1.6,31,24
5,USA,Minneapolis-Crystal AP    ,45.07,-93.35,8.4,13.9,-0.7,27,14
5,USA,Minneapolis-St Paul Intl AP  ,44.88,-93.23,9.1,14,-1.3,24,1
5,USA,Mora Muni AWOS   ,45.88,-93.27,8.3,13.2,0.1,31,8
5,USA,Morris Muni AWOS   ,45.57,-95.97,7.2,13.2,-2.4,28,17
5,USA,New Ulm Muni AWOS  ,44.32,-94.5,9.2,13.9,-1.6,33,2
5,USA,Orr Rgnl AP   ,48.02,-92.87,5.1,12.4,-2,30,34
5,USA,Owatonna AWOS    ,44.12,-93.25,9.4,14.3,-1.3,25,14
5,USA,Park Rapids Muni AP  ,46.9,-95.07,6.8,13,-1,29,10
5,USA,Pipestone AWOS    ,43.98,-96.32,8.7,14.4,-1.4,26,28
5,USA,Red Wing Muni AP  ,44.58,-92.48,9.7,14.2,-1.3,30,15
5,USA,Redwood Falls Muni AP  ,44.55,-95.08,8.9,13.7,-1.2,26,-19
5,USA,Rochester Intl AP   ,43.9,-92.5,8.3,13.5,-1,27,8
5,USA,Roseau Muni AWOS   ,48.85,-95.7,6.1,12.5,-1.4,37,21
5,USA,Silver Bay Muni AP  ,47.2,-91.4,4.9,11.1,-2.2,31,39
5,USA,South St Paul Muni AP ,44.85,-93.15,9.6,14.6,-1.1,27,18
5,USA,St Cloud Muni AP  ,45.55,-94.05,7.8,13.5,-1.5,28,11
5,USA,St Paul-Downtown AP   ,44.93,-93.05,9.1,13.9,-0.7,30,5
5,USA,Thief River AWOS   ,48.07,-96.18,6.8,12.8,-2.1,31,18
5,USA,Two Harbors Muni AP  ,47.05,-91.75,6.4,12.1,-1.7,25,24
5,USA,Wheaton AWOS    ,45.7,-96.5,8,14,-1.1,27,28
5,USA,Willmar Muni AP   ,45.12,-95.08,9.4,13.3,-0.8,24,21
5,USA,Winona Muni AWOS   ,44.08,-91.7,9.6,13.9,-0.2,27,9
5,USA,Worthington AWOS    ,43.65,-95.58,8.9,13.9,-1.8,30,21
5,USA,Cape Girardeau Muni AP  ,37.23,-89.57,14.9,11.3,0.5,24,12
5,USA,Columbia Rgnl AP   ,38.82,-92.22,13.5,12.7,1.3,20,1
5,USA,Farmington Rgnl AP   ,37.77,-90.4,14.7,11,0.1,19,17
5,USA,Fort Leonard Wood-Forney AAF  ,37.75,-92.15,15,12,-0.4,21,11
5,USA,Jefferson City Mem AP  ,38.58,-92.15,15.2,12.1,0.9,24,-14
5,USA,Joplin Muni AP   ,37.15,-94.5,16.9,11.9,1.3,27,-3
5,USA,Kaiser-Lee Fine Mem AWOS  ,38.1,-92.55,15,12.4,1.1,23,-20
5,USA,Kansas City Downtown AP  ,39.12,-94.6,16,12.6,1.6,21,-21
5,USA,Kansas City Intl AP  ,39.3,-94.72,13.5,13.3,0.8,20,5
5,USA,Kirksville Muni AP   ,40.1,-92.55,11.8,14.3,0.9,21,34
5,USA,Poplar Bluff AWOS   ,36.77,-90.47,15.9,12,1,20,-7
5,USA,Rolla National AP   ,38.13,-91.77,13.8,10.7,0.8,19,-3
5,USA,Springfield Rgnl AP   ,37.23,-93.38,14.5,11.5,0.6,22,5
5,USA,St Joseph-Rosecrans Mem AP  ,39.77,-94.9,13.2,13.5,-0.2,23,7
5,USA,St Louis-Lambert Intl AP  ,38.75,-90.37,14.6,12.7,1.2,19,-13
5,USA,St Louis-Spirit of St Louis AP,38.65,-90.65,15,11.5,1.1,20,18
5,USA,Whiteman AFB    ,38.72,-93.55,14.3,11.9,-0.6,21,-7
5,USA,Biloxi-Keesler AFB    ,30.42,-88.92,20.6,8.8,0.8,22,9
5,USA,Columbus AFB    ,33.65,-88.45,17.4,11.5,1.4,18,-23
5,USA,Golden Triangle Rgnl AWOS  ,33.45,-88.58,17.5,11,0.7,19,-9
5,USA,Greenville Muni AP   ,33.48,-90.98,19.5,10,1.2,16,-20
5,USA,Greenwood-Leflore AP    ,33.5,-90.08,18.8,9.7,0.9,22,-18
5,USA,Gulfport-Biloxi Intl AP   ,30.4,-89.07,20.6,8.3,0.6,22,-29
5,USA,Hattiesburg-Laurel AP    ,31.47,-89.33,19.3,9.6,0.9,14,4
5,USA,Jackson Intl AP   ,32.32,-90.08,18.8,9.7,1.1,19,-14
5,USA,McComb-Pike Co AP   ,31.23,-90.47,19.6,9.1,1.6,20,-15
5,USA,Meridian-Key Field    ,32.33,-88.75,18.5,9.6,1.4,16,-15
5,USA,Meridian NAS    ,32.55,-88.57,19.2,9.4,1,22,12
5,USA,Natchez-Hardy Anders Field   ,31.62,-91.3,19.7,8.2,1.3,19,-8
5,USA,Tupelo Muni-C D Lemons AP ,34.27,-88.77,17.9,10.6,1.6,17,-24
5,USA,Billings-Logan Intl AP   ,45.8,-108.55,11.1,13.4,0,22,7
5,USA,Bozeman-Gallatin Field    ,45.8,-111.15,8.1,12.5,-1.8,26,26
5,USA,Butte-Bert Mooney AP   ,45.95,-112.5,8.1,12.1,-1.7,22,35
5,USA,Cut Bank Muni AP  ,48.6,-112.37,8.5,11.4,-1,22,13
5,USA,Glasgow Intl AP   ,48.22,-106.62,9,14.9,-1,22,9
5,USA,Glendive AWOS    ,47.13,-104.8,8.4,14.6,-3,24,23
5,USA,Great Falls Intl AP  ,47.47,-111.38,9.4,12.9,-0.5,26,5
5,USA,Havre City-County AP   ,48.55,-109.77,9.1,13.8,-1.9,25,9
5,USA,Helena Rgnl AP   ,46.6,-111.97,9.8,13,-0.9,21,24
5,USA,Kalispell-Glacier Park Intl AP  ,48.32,-114.25,7.7,11.4,-1.3,24,27
5,USA,Lewistown Muni AP   ,47.05,-109.45,7.6,11,-1.3,32,7
5,USA,Livingston-Mission Field    ,45.7,-110.45,9.3,11.2,-1.2,26,44
5,USA,Miles City Muni AP  ,46.43,-105.88,10.1,14.9,-1,21,0
5,USA,Missoula Intl AP   ,46.92,-114.1,9,11.6,0.1,23,3
5,USA,Sidney-Richland Muni AP   ,47.7,-104.2,7.2,15.3,-2.5,27,35
5,USA,Wolf Point Intl AP  ,48.31,-105.1,7.8,13.9,-0.9,26,-14
5,USA,Asheville Rgnl AP   ,35.43,-82.53,14,9.7,0.7,19,-11
5,USA,Cape Hatteras    ,35.27,-75.55,18.2,9.2,0.8,25,-7
5,USA,Charlotte-Douglas Intl AP   ,35.22,-80.95,17.1,10.1,0.7,21,-13
5,USA,Cherry Point MCAS   ,34.9,-76.88,16.8,10.4,0,24,9
5,USA,Elizabeth City CGAS   ,36.3,-76.25,17.9,9.2,0.1,26,2
5,USA,Fayetteville-Pope AFB    ,35.17,-79.02,17,10.7,0.3,21,10
5,USA,Fayetteville Muni AP   ,34.98,-78.88,16.5,10.5,1,19,-3
5,USA,Fort Bragg-Simmons AAF   ,35.13,-78.93,17.5,10.3,-0.2,22,9
5,USA,Goldsboro-Seymour Johnson AFB   ,35.35,-77.97,16.6,10.9,0.7,18,-3
5,USA,Greensboro-Piedmont Triad Intl AP  ,36.1,-79.95,15.8,10.8,1.1,19,-3
5,USA,Hickory Rgnl AP   ,35.73,-81.38,16.7,10.3,0.8,21,33
5,USA,Jacksonville AWOS    ,34.83,-77.62,16.2,10.2,0.3,19,27
5,USA,Kinston Stallings AFB   ,35.32,-77.63,16.9,10.4,0.4,22,7
5,USA,Manteo-Dare County Rgnl AP  ,35.92,-75.7,17.2,9.9,-1.2,38,-31
5,USA,New Bern-Craven County Rgnl AP ,35.07,-77.05,18.5,8.4,1,24,-32
5,USA,New River MCAS   ,34.7,-77.38,17.8,9.9,1.2,29,14
5,USA,Pitt Greenville AP   ,35.63,-77.4,17.4,9.5,1.3,27,47
5,USA,Raleigh-Durham Intl AP   ,35.87,-78.78,16.4,10.4,0.6,21,6
5,USA,Rocky Mount-Wilson AP   ,35.85,-77.9,17,8.9,0.9,18,4
5,USA,Southern Pines-Moore County AP  ,35.23,-79.4,16.5,9.8,-0.2,26,2
5,USA,Wilmington Intl AP   ,34.27,-77.9,18.4,9.4,0.2,23,10
5,USA,Winston Salem-Smith Reynolds AP  ,36.13,-80.22,16.7,9.3,1,19,11
5,USA,Bismarck Muni AP   ,46.77,-100.77,8.2,13.4,-1.4,25,7
5,USA,Devils Lake AWOS   ,48.12,-98.92,6.8,13.2,-1.2,37,18
5,USA,Dickinson Muni AP   ,46.8,-102.8,7.5,13.2,-1.2,28,35
5,USA,Fargo-Hector Intl AP   ,46.93,-96.82,7.6,13.9,-1,27,1
5,USA,Grand Forks AFB   ,47.97,-97.4,6.5,12.6,-2.9,29,26
5,USA,Grand Forks Intl AP  ,47.95,-97.18,7.4,14.5,-1.4,27,9
5,USA,Jamestown Muni AP   ,46.92,-98.68,6.7,13.8,-2.4,27,31
5,USA,Minot AFB    ,48.42,-101.35,6.8,12.2,-2.4,36,19
5,USA,Minot Intl AP   ,48.27,-101.28,7.4,13.4,-1.6,29,6
5,USA,Williston-Sloulin Field Intl AP  ,48.2,-103.65,8.4,15.1,-1.4,26,32
5,USA,Ainsworth Muni AP   ,42.58,-100,11,12.5,1,25,-32
5,USA,Alliance Muni AP   ,42.05,-102.8,11.5,13.9,-1.8,20,46
5,USA,Beatrice Muni AP   ,40.3,-96.75,12.4,13.5,0.8,23,12
5,USA,Bellevue-Offutt AFB    ,41.12,-95.92,11.5,14.1,-0.7,20,39
5,USA,Broken Bow Muni AP  ,41.43,-99.65,9.8,13.4,-0.7,28,17
5,USA,Chadron Muni AP   ,42.83,-103.08,12,13.6,-0.8,21,37
5,USA,Columbus Muni AP   ,41.45,-97.33,10.9,14.2,0.2,27,13
5,USA,Falls City-Brenner Field   ,40.08,-95.6,12.3,13.4,1.2,24,17
5,USA,Fremont Muni AP   ,41.45,-96.52,11.2,14.1,0.9,26,-10
5,USA,Grand Island-Central Nebraska Rgnl AP ,40.97,-98.32,10.8,14.5,0,23,-4
5,USA,Hastings Muni AP   ,40.6,-98.43,11.7,13.8,-0.4,24,-2
5,USA,Holdrege-Brewster Field    ,40.45,-99.33,10.6,13.4,1,21,-38
5,USA,Imperial Muni AP   ,40.52,-101.62,13.1,13.5,-1.4,21,25
5,USA,Kearney Muni AWOS   ,40.73,-99,10.8,13,-0.6,25,34
5,USA,Lincoln Muni AP   ,40.83,-96.77,12.2,14,0.9,18,1
5,USA,McCook Muni AP   ,40.2,-100.58,12.4,14,1.2,20,-18
5,USA,Norfolk-Karl Stefan Mem AP  ,41.98,-97.43,10.3,14.6,-0.2,24,3
5,USA,North Platte Rgnl AP  ,41.12,-100.67,10.4,13.2,-0.7,25,5
5,USA,Omaha-Eppley Airfield    ,41.32,-95.9,12.2,14.4,0.8,25,29
5,USA,Omaha WSFO    ,41.37,-96.02,11.7,14.8,0.7,22,25
5,USA,ONeill-Baker Field    ,42.47,-98.68,9.8,13.9,-1.2,26,49
5,USA,Ord-Sharp Field    ,41.62,-98.95,10.8,13.8,-0.7,21,-19
5,USA,Scottsbluff-W B Heilig Field  ,41.87,-103.6,11.7,13.8,-0.7,19,34
5,USA,Sidney Muni AP   ,41.1,-102.98,11.1,13.2,-0.5,17,7
5,USA,Tekamah AWOS    ,41.77,-96.17,11.5,14,0.6,25,-5
5,USA,Valentine-Miller Field    ,42.87,-100.55,10.9,13.1,0.3,24,0
5,USA,Berlin Muni AP   ,44.58,-71.18,6.8,12,-1.5,38,25
5,USA,Concord Muni AP   ,43.2,-71.5,9.1,12.8,-0.7,27,-7
5,USA,Keene-Dillant Hopkins AP   ,42.9,-72.27,9.8,12.6,-1,30,-2
5,USA,Laconia Muni AWOS   ,43.57,-71.42,9.4,12.2,-1.4,29,-2
5,USA,Lebanon Muni AP   ,43.63,-72.3,9.3,12.8,-0.7,32,-2
5,USA,Manchester Muni AP   ,42.93,-71.43,11,12.2,0,32,12
5,USA,Mount Washington    ,44.27,-71.3,-0.4,5.4,0,44,7
5,USA,Pease Intl Tradeport   ,43.08,-70.82,10,12,-1,30,5
5,USA,Atlantic City Intl AP  ,39.45,-74.57,13.2,11,0.1,25,1
5,USA,Belmar-Monmouth County AP   ,40.18,-74.07,12.9,11.3,-0.9,29,-14
5,USA,Caldwell-Essex County AP   ,40.88,-74.28,13.2,10.5,-0.4,30,0
5,USA,Cape May County AP  ,39,-74.92,14.6,10,-1.1,33,9
5,USA,McGuire AFB    ,40.02,-74.6,13.6,11.3,0.5,28,8
5,USA,Millville Muni AP   ,39.37,-75.08,14,10.6,-0.8,26,-24
5,USA,Newark Intl AP   ,40.72,-74.18,13.7,12.1,0.6,24,3
5,USA,Teterboro AP    ,40.85,-74.07,13.3,10.1,0.4,25,13
5,USA,Trenton-Mercer County AP   ,40.28,-74.82,14,11.7,0.4,25,-1
5,USA,Albuquerque Intl AP   ,35.04,-106.62,16.4,12,1.1,18,-27
5,USA,Carlsbad Cavern City Air Terminal ,32.33,-104.27,19.9,11.7,0.6,18,17
5,USA,Clayton Muni AP   ,36.45,-103.15,15.3,12.2,0.3,18,4
5,USA,Clovis-Cannon AFB    ,34.38,-103.32,16,13,-0.2,20,0
5,USA,Clovis Muni AWOS   ,34.43,-103.08,16,12.7,0,17,15
5,USA,Deming Muni AP   ,32.25,-107.72,19.5,11.1,1.1,13,-7
5,USA,Farmington-Four Corners Rgnl AP  ,36.75,-108.23,14.7,13.1,-0.9,14,44
5,USA,Gallup-Sen Clarke Field   ,35.52,-108.78,13,11.8,-1.3,16,48
5,USA,Holloman AFB    ,32.85,-106.1,18.7,11.6,1.5,14,-22
5,USA,Las Cruces Intl AP  ,32.28,-106.92,20,11.8,0.5,19,-33
5,USA,Las Vegas-Muni AP   ,35.65,-105.15,13.5,10.1,0,16,10
5,USA,Roswell Industrial Air Park  ,33.3,-104.53,19.4,11.1,0.7,16,-5
5,USA,Ruidoso-Sierra Blanca Rgnl AP  ,33.47,-105.53,15.8,9.6,1.1,11,-23
5,USA,Santa Fe County Muni AP ,35.62,-106.08,12.4,10.9,1.2,15,-23
5,USA,Taos Muni AP   ,36.45,-105.67,9.9,11.7,0,16,15
5,USA,Truth or Consequences Muni AP ,33.23,-107.27,18.9,11.1,0.7,14,-28
5,USA,Tucumcari AP    ,35.18,-103.6,16.3,12.2,0.2,19,9
5,USA,Elko Muni AP   ,40.83,-115.8,11.3,13.1,-1,17,38
5,USA,Ely-Yelland Field    ,39.3,-114.85,10.5,11.9,-1,19,42
5,USA,Fallon NAS    ,39.42,-118.72,15.4,12.9,1,18,-38
5,USA,Las Vegas-McCarran Intl AP  ,36.08,-115.15,21.6,12.5,0,19,11
5,USA,Lovelock-Derby Field    ,40.07,-118.55,14.7,12.9,-1.6,20,48
5,USA,Mercury-Desert Rock AP   ,36.63,-116.02,19.8,12.3,0,18,2
5,USA,Nellis AFB    ,36.25,-115.03,22.4,13.2,-1.1,16,34
5,USA,Reno-Tahoe Intl AP   ,39.48,-119.77,14.1,12,-1.3,18,41
5,USA,Tonopah AP    ,38.07,-117.08,13.9,12.2,-1.4,19,35
5,USA,Winnemucca Muni AP   ,40.9,-117.8,12.9,12.8,-1.2,18,42
5,USA,Albany County AP   ,42.75,-73.8,10,12.5,-1,26,-28
5,USA,Binghamton-Edwin A Link Field  ,42.2,-75.98,9.3,12,-1.2,28,-16
5,USA,Buffalo-Greater Buffalo Intl AP  ,42.93,-78.73,10,12.2,-0.6,30,-17
5,USA,Elmira Rgnl AP   ,42.17,-76.9,10.3,11,0.5,25,3
5,USA,Fort Drum-Wheeler Sack AAF  ,44.05,-75.72,8.6,11.9,-1.6,28,12
5,USA,Glens Falls-Bennett Mem AP  ,43.35,-73.62,9.6,12.6,-0.7,31,-18
5,USA,Islip-Long Island MacArthur AP  ,40.78,-73.1,13.4,11.2,-0.1,28,-10
5,USA,Jamestown AWOS    ,42.15,-79.27,9,11,-1.3,32,-5
5,USA,Massena AP    ,44.93,-74.85,8.3,13,-1.4,28,4
5,USA,Monticello AWOS    ,41.7,-74.8,9.4,12.5,-0.8,30,10
5,USA,New York-Central Park   ,40.78,-73.97,13.6,11.8,0.3,25,10
5,USA,New York-J F Kennedy Intl AP,40.65,-73.8,13.7,11.5,-0.6,29,42
5,USA,New York-LaGuardia AP   ,40.78,-73.88,14.7,11.4,0.1,30,10
5,USA,Newburgh-Stewart Intl AP   ,41.5,-74.1,11.4,12.3,-1,28,-13
5,USA,Niagara Falls Intl AP  ,43.1,-78.95,10.5,12,-1.7,34,-10
5,USA,Poughkeepsie-Dutchess County AP   ,41.63,-73.88,11.3,11.8,1,25,33
5,USA,Republic AP    ,40.72,-73.42,13.6,10.6,1,31,-31
5,USA,Rochester-Greater Rochester Intl AP  ,43.12,-77.68,10.4,12.5,-0.8,28,-34
5,USA,Saranac Lake-Adirondack Rgnl AP  ,44.38,-74.2,6.9,12.1,-2.2,27,19
5,USA,Syracuse-Hancock Intl AP   ,43.12,-76.1,10.2,12.4,-0.7,25,-24
5,USA,Utica-Oneida County AP   ,43.15,-75.38,9.8,12.5,-0.4,27,6
5,USA,Watertown AP    ,44,-76.02,8.8,12.6,-0.6,33,24
5,USA,Westhampton-Suffolk County AP   ,40.85,-72.63,12,10.2,1,30,-9
5,USA,White Plains-Westchester County AP  ,41.07,-73.72,11.7,11.3,1,26,8
5,USA,Akron Canton Rgnl AP  ,40.92,-81.43,10.8,12.4,-1.1,26,-28
5,USA,Cincinnati Muni AP-Lunken Field  ,39.1,-84.42,13.6,11.4,0.3,24,8
5,USA,Cleveland-Burke Lakefront AP   ,41.52,-81.68,11.6,12.5,-1,30,-46
5,USA,Cleveland-Hopkins Intl AP   ,41.4,-81.85,11.2,13.1,-0.3,27,6
5,USA,Columbus-Port Columbus Intl AP  ,39.98,-82.88,12.4,11.8,0.8,23,40
5,USA,Dayton-Wright Patterson AFB   ,39.83,-84.05,12.3,11.6,-1.1,27,9
5,USA,Dayton Intl AP   ,39.9,-84.22,12.1,12.6,0.5,21,28
5,USA,Findlay AP    ,41.02,-83.67,11.9,11.1,1.1,22,14
5,USA,Mansfield-Lahm Muni AP   ,40.82,-82.52,10.3,12.8,-1.1,28,-23
5,USA,Ohio State University AP  ,40.07,-83.07,13.2,12.3,1.5,28,-23
5,USA,Toledo Express AP   ,41.58,-83.8,10.5,13,0.6,23,43
5,USA,Youngstown Rgnl AP   ,41.25,-80.67,10.2,12,-0.1,27,10
5,USA,Zanesville Muni AP   ,39.95,-81.9,13.1,10,0.1,19,8
5,USA,Altus AFB    ,34.65,-99.27,18.3,12.3,0.1,21,2
5,USA,Bartlesville-Phillips Field    ,36.77,-96.02,15.5,11.7,0.6,15,12
5,USA,Clinton Sherman AP   ,35.33,-99.2,16.1,12.5,0.7,23,8
5,USA,Fort Sill-Henry Post AAF  ,34.65,-98.4,17.7,12.3,0.1,22,10
5,USA,Gage AP    ,36.3,-99.77,17.3,13.7,1,16,-11
5,USA,Hobart Muni AP   ,35,-99.05,17.4,12.6,1.3,24,-22
5,USA,Lawton Muni AP   ,34.57,-98.42,17.7,10.7,0.6,19,-33
5,USA,McAlester Rgnl AP   ,34.9,-95.78,17.9,10.8,0.7,21,8
5,USA,Oklahoma City-Tinker AFB   ,35.42,-97.38,16.5,12.4,-0.6,21,8
5,USA,Oklahoma City-Wiley Post Field  ,35.53,-97.65,16.5,12.3,0.2,23,4
5,USA,Oklahoma City-Will Rogers World AP ,35.38,-97.6,16.9,11.7,1.3,22,-7
5,USA,Ponca City Muni AP  ,36.61,-97.49,17.3,12.6,1.5,24,-28
5,USA,Stillwater Rgnl AP   ,36.15,-97.08,17,12.4,1.3,19,-26
5,USA,Tulsa Intl AP   ,36.2,-95.88,16.8,12.4,0.5,19,11
5,USA,Vance AFB    ,36.33,-97.92,15.7,13,-1,24,51
5,USA,Astoria Rgnl AP   ,46.15,-123.88,12.6,6,-0.9,23,59
5,USA,Aurora State AP   ,45.25,-122.77,14.6,8.9,-1.2,20,43
5,USA,Baker Muni AP   ,44.83,-117.82,10.8,12.1,-1.6,21,35
5,USA,Burns Muni AP   ,43.52,-119.02,10.4,12.3,-1.5,19,36
5,USA,Corvallis Muni AP   ,44.48,-123.28,14.9,8.7,-1.3,18,53
5,USA,Eugene-Mahlon Sweet AP   ,44.05,-123.07,13.4,8.7,0,20,5
5,USA,Klamath Falls Intl AP  ,42.22,-121.74,11.8,11.3,-2,20,36
5,USA,La Grande Muni AP  ,45.28,-118,12.4,11.4,-1.7,19,54
5,USA,Lakeview AWOS    ,42.17,-120.4,11.1,11.5,-1.3,20,34
5,USA,Medford-Rogue Valley Intl AP  ,42.19,-122.7,14.9,10.6,1.6,20,-35
5,USA,North Bend Muni AP  ,43.42,-124.25,13.2,5.1,0.1,20,18
5,USA,Pendleton-Eastern Oregon Rgnl AP  ,45.7,-118.83,13.5,11.3,1.4,19,-31
5,USA,Portland-Hillsboro AP    ,45.53,-122.95,14.3,8.6,1.2,13,-26
5,USA,Portland-Troutdale AP    ,45.55,-122.4,14.5,9.1,-1.2,22,46
5,USA,Portland Intl AP   ,45.6,-122.62,14.2,8.8,1.4,20,-27
5,USA,Redmond-Roberts Field    ,44.25,-121.17,11.5,10.5,0.1,20,6
5,USA,Roseburg Rgnl AP   ,43.23,-123.35,15.5,8.3,1.1,16,-37
5,USA,Salem-McNary Field    ,44.9,-123,13.8,8.7,0.1,20,6
5,USA,Sexton Summit    ,42.6,-123.37,13.1,9.4,-1,29,29
5,USA,Allentown-Lehigh Valley Intl AP  ,40.65,-75.45,11.8,12.4,1.2,24,40
5,USA,Altoona-Blair County AP   ,40.3,-78.32,11.8,11.2,1.3,23,-17
5,USA,Bradford Rgnl AP   ,41.8,-78.63,7.6,11.6,-1,27,9
5,USA,Butler County AWOS   ,40.78,-79.95,10.4,12.4,-0.9,27,-6
5,USA,DuBois-Jefferson County AP   ,41.18,-78.9,9.4,12,-0.1,26,6
5,USA,Erie Intl AP   ,42.08,-80.18,10.4,12.3,-1.1,30,-23
5,USA,Franklin-Chess Lemberton AP   ,41.38,-79.87,9.8,11.3,-0.5,26,35
5,USA,Harrisburg-Capital City AP   ,40.22,-76.85,12.8,12.1,0.8,22,11
5,USA,Harrisburg Intl AP   ,40.2,-76.77,12.2,13.5,-0.6,26,-16
5,USA,Johnstown-Cambria County AP   ,40.32,-78.83,10.5,11.8,0.7,24,-8
5,USA,Lancaster AP    ,40.12,-76.3,13.5,10.8,0,19,10
5,USA,Philadelphia-NE Philadelphia AP   ,40.08,-75.02,14.2,11.9,0.4,27,7
5,USA,Philadelphia Intl AP   ,39.87,-75.23,13.9,11.9,0.5,23,3
5,USA,Pittsburgh-Allegheny County AP   ,40.35,-79.92,12.6,10.2,0.8,22,13
5,USA,Pittsburgh Intl AP   ,40.5,-80.23,11.9,11.5,0.1,23,4
5,USA,Reading Mem AP-Spaatz Field  ,40.37,-75.97,13.5,11.5,0.9,25,25
5,USA,State College-Penn State University  ,40.72,-77.93,11.1,12,1.6,31,64
5,USA,Washington AWOS    ,40.13,-80.28,12.1,10.7,-0.7,24,16
5,USA,Wilkes-Barre-Scranton Intl AP   ,41.33,-75.73,10.8,12.6,0.1,25,11
5,USA,Williamsport Rgnl AP   ,41.25,-76.92,11.7,12.5,0.8,24,37
5,USA,Willow Grove NAS   ,40.2,-75.15,14,10.6,-0.2,27,13
5,USA,Aquadilla/Borinquen,18.5,-67.13,26,1.5,0,41,-6
5,USA,Eugenio Maria De Ho,18.25,-67.15,26.4,1.4,-0.2,20,7
5,USA,Mercedita,18,-66.55,26.6,1.6,0.1,24,-1
5,USA,Roosevelt-Roads,18.25,-65.63,27.6,1.7,-0.1,32,1
5,USA,SanJuanIntlArpt,18.42,-66,27,1.8,-0.1,39,-13
5,USA,SanJuanLMMarinIntlAP,18.43,-66,27,1.9,0.1,34,-7
5,USA,Block Island State AP  ,41.17,-71.58,12.2,9.3,-0.9,38,26
5,USA,Pawtucket AWOS    ,41.92,-71.5,10.9,11.5,-0.5,28,9
5,USA,Providence-T F Green State AP ,41.72,-71.43,11.7,11.5,0.2,27,-4
5,USA,Anderson County AP   ,34.5,-82.72,16.5,10.3,0.4,26,-2
5,USA,Beaufort MCAS    ,32.48,-80.72,19.4,9,0.6,23,7
5,USA,Charleston Intl AP   ,32.9,-80.03,19.4,8.8,0.5,23,1
5,USA,Columbia Metro AP   ,33.95,-81.12,18.3,9.6,1.1,20,5
5,USA,Florence Rgnl AP   ,34.18,-79.73,19,9.3,1,22,-21
5,USA,Greenville-Downtown AP    ,34.85,-82.35,16.1,10.7,0.3,25,1
5,USA,Greer Greenville-Spartanburg AP   ,34.9,-82.22,16.7,10.2,0.7,20,-19
5,USA,Myrtle Beach AFB   ,33.68,-78.93,18.5,8.9,0.7,20,6
5,USA,North Myrtle Beach-Grand Strand Field ,33.82,-78.72,18.3,9,0.7,21,4
5,USA,Shaw AFB    ,33.97,-80.47,17.3,9.9,0.2,20,3
5,USA,Aberdeen Rgnl AP   ,45.45,-98.42,9.2,14,-1,27,3
5,USA,Brookings AWOS    ,44.3,-96.82,8.9,13.1,-0.5,24,9
5,USA,Ellsworth AFB    ,44.15,-103.1,8.8,13.3,-3.1,27,16
5,USA,Huron Rgnl AP   ,44.4,-98.22,8.6,14,-1.5,28,7
5,USA,Mitchell AWOS    ,43.77,-98.03,9,14.7,-2.6,28,28
5,USA,Mobridge Muni AP   ,45.53,-100.43,8.1,14.4,-2.2,25,30
5,USA,Pierre Muni AP   ,44.38,-100.28,9.9,14.3,-0.5,25,16
5,USA,Rapid City Rgnl AP  ,44.05,-103.05,9.3,13.2,-0.8,25,23
5,USA,Sioux Falls-Foss Field   ,43.58,-96.75,9.6,14.1,-0.7,26,8
5,USA,Watertown Muni AP   ,44.93,-97.15,7.7,13.7,-1,31,17
5,USA,Yankton-Chan Gurney Muni AP  ,42.92,-97.38,10.2,14.6,-1.4,29,11
5,USA,Bristol-TriCities Rgnl AP   ,36.47,-82.4,14.3,10.7,0.7,22,17
5,USA,Chattanooga-Lovell Field AP   ,35.03,-85.2,16.9,10.3,0.5,20,-5
5,USA,Crossville Mem AP   ,35.95,-85.08,14.9,9.7,0.9,20,0
5,USA,Dyersburg Muni AP   ,36.02,-89.4,16.9,11.3,-0.1,28,-7
5,USA,Jackson-McKellar Sipes Rgnl AP  ,35.6,-88.92,16.8,9.8,1.3,18,2
5,USA,Knoxville-McGhee Tyson AP   ,35.82,-83.98,15.9,11.2,0.9,22,10
5,USA,Memphis Intl AP   ,35.07,-89.98,18.1,11,0.7,21,6
5,USA,Nashville Intl AP   ,36.12,-86.68,16.7,11.4,0.9,23,3
5,USA,Abilene-Dyess AFB    ,32.43,-99.85,20.3,10.9,0.4,21,5
5,USA,Abilene Rgnl AP   ,32.47,-99.71,18.1,11.1,1.5,21,6
5,USA,Alice Intl AP   ,27.73,-98.03,23.3,7.6,0.8,18,2
5,USA,Amarillo Intl AP   ,34.99,-101.9,16,12,0.8,18,-26
5,USA,Austin-Camp Mabry    ,30.32,-97.77,20.8,9.3,1,20,-7
5,USA,Austin-Mueller Muni AP   ,30.29,-97.74,21.4,8.2,0.5,21,11
5,USA,Brownsville-South Padre Island AP  ,25.9,-97.43,23.3,7.1,1.2,20,6
5,USA,Childress Muni AP   ,34.43,-100.28,18.5,12,-0.9,21,32
5,USA,College Station-Easterwood Field   ,30.58,-96.37,20.7,8.6,1.5,20,-34
5,USA,Corpus Christi Intl AP  ,27.88,-97.63,22.4,7.4,1,24,13
5,USA,Corpus Christi NAS   ,27.68,-97.28,23.6,6.7,0.8,27,0
5,USA,Cotulla AP    ,28.45,-99.22,24.7,8.6,2,8,-15
5,USA,Cox Field    ,33.63,-95.45,18,10.5,0.8,22,-24
5,USA,Dalhart Muni AP   ,36.02,-102.55,14.4,12.4,-1.4,21,41
5,USA,Dallas-Addison AP    ,32.97,-96.83,19.5,11.4,1.7,24,-34
5,USA,Dallas-Fort Worth Intl AP  ,32.9,-97.02,19.7,10.7,1.4,20,-13
5,USA,Dallas-Love Field    ,32.85,-96.85,20.8,11.6,0.9,26,-5
5,USA,Dallas-Redbird AP    ,32.68,-96.87,20.7,9.9,2,18,-25
5,USA,Del Rio-Laughlin AFB   ,29.37,-100.78,24.5,9.6,1.1,14,-5
5,USA,Del Rio    ,29.38,-100.91,23,9.5,0.6,23,-27
5,USA,Draughon-Miller Central Texas AP  ,31.15,-97.4,19.9,9.7,0.5,22,4
5,USA,El Paso Intl AP  ,31.77,-106.5,20.7,10.8,0.7,14,-6
5,USA,Fort Hood    ,31.13,-97.72,20.4,10.2,1.2,21,12
5,USA,Fort Worth-Alliance AP   ,32.98,-97.32,18.8,10.6,0.5,24,10
5,USA,Fort Worth-Meacham AP   ,32.82,-97.37,19.2,11.4,-1,22,38
5,USA,Fort Worth NAS   ,32.77,-97.45,20,9.8,1.3,18,-21
5,USA,Galveston     ,29.3,-94.8,22.1,8,0.9,24,-24
5,USA,Georgetown AWOS    ,30.68,-97.68,20.2,9.4,0.4,25,1
5,USA,Greenville Muni AP   ,33.07,-96.07,19,10.7,0.4,23,5
5,USA,Harlingen-Valley Intl AP   ,26.23,-97.65,23.6,6.2,-0.3,27,-9
5,USA,Hondo Muni AP   ,29.37,-99.17,21,9,1.2,21,-13
5,USA,Houston-Bush Intercontinental AP   ,30,-95.37,21.2,8.4,0.7,23,5
5,USA,Houston-D W Hooks AP  ,30.07,-95.55,21.5,8.2,1.3,21,-3
5,USA,Houston-Ellington AFB    ,29.57,-95.09,21.4,8.1,0.7,28,15
5,USA,Houston-William P Hobby AP  ,29.65,-95.28,21.9,7.2,0,22,10
5,USA,Killeen-Fort Hood Rgnl AP  ,31.07,-97.83,20.8,8.9,1.2,24,-3
5,USA,Killeen Muni AWOS   ,31.08,-97.68,20.1,9.6,1.2,25,3
5,USA,Kingsville     ,27.5,-97.82,22.8,7.2,0.3,26,-2
5,USA,Laredo Intl AP   ,27.57,-99.49,24.2,9.5,1.8,18,26
5,USA,Longview-Gregg County AP   ,32.29,-94.98,19.7,9.4,0.4,28,-4
5,USA,Lubbock Intl AP   ,33.67,-101.82,17.8,11.5,0.9,17,-4
5,USA,Lufkin-Angelina Co AP   ,31.23,-94.75,19.9,8.9,0.6,22,12
5,USA,Marfa AP    ,30.37,-104.02,18,9.6,1.1,16,-12
5,USA,McAllen-Miller Intl AP   ,26.31,-98.17,24.7,7.5,1.3,21,-24
5,USA,McGregor AWOS    ,31.48,-97.32,19.8,10.1,0,29,-3
5,USA,Midland Intl AP   ,31.95,-102.18,19.6,10.5,0.3,14,2
5,USA,Mineral Wells Muni AP  ,32.78,-98.07,19.3,10,0.8,24,-25
5,USA,Nacogdoches AWOS    ,31.58,-94.72,19.4,9.1,0.5,25,0
5,USA,Palacios Muni AP   ,28.72,-96.25,21.6,7.9,1,25,30
5,USA,Port Arthur-Jefferson Co AP  ,29.95,-94.02,21.2,8.2,0.8,21,15
5,USA,Randolph AFB    ,29.53,-98.28,21.1,8.8,1.2,21,3
5,USA,Rockport-Aransas Co AP   ,28.08,-97.05,23.4,7,0.4,25,25
5,USA,San Angelo-Mathis AP   ,31.35,-100.5,20.1,10.9,1.5,15,-3
5,USA,San Antonio-Kelly AFB   ,29.38,-98.58,22.1,8.8,1.1,23,31
5,USA,San Antonio-Stinson AP   ,29.33,-98.47,21.6,8.7,0.2,16,1
5,USA,San Antonio Intl AP  ,29.53,-98.47,21.3,9,0.9,23,5
5,USA,Tyler-Pounds Field    ,32.35,-95.4,19.3,9.6,0.6,23,-15
5,USA,Victoria Rgnl AP   ,28.87,-96.93,21.5,8.1,0.8,24,-5
5,USA,Waco Rgnl AP   ,31.62,-97.23,19.8,10.4,1.3,20,-16
5,USA,Wichita Falls Muni AP  ,33.98,-98.5,18.3,10.9,0.8,21,-12
5,USA,Wink-Winkler County AP   ,31.78,-103.2,21.4,11.8,0.7,13,14
5,USA,Blanding Muni AP   ,37.62,-109.48,13.9,12.9,-1.8,18,37
5,USA,Bryce Canyon AP   ,37.7,-112.15,7,11,-1.7,29,24
5,USA,Cedar City Muni AP  ,37.7,-113.1,13.7,12.4,-0.1,19,11
5,USA,Delta Muni AP   ,39.33,-112.58,13.5,12.5,-2.8,20,44
5,USA,Hanksville AP    ,38.37,-110.72,15.7,14.3,-2,16,40
5,USA,Moab-Canyonlands Field    ,38.58,-109.54,15.5,13.9,1.3,14,-31
5,USA,Ogden-Hill AFB    ,41.12,-111.97,12.2,12.4,-1.5,24,30
5,USA,Ogden-Hinkley AP    ,41.2,-112.02,14.2,14,0.9,18,-27
5,USA,Provo Muni AWOS   ,40.22,-111.72,12.5,12,-1.5,17,50
5,USA,Saint George AWOS   ,37.08,-113.6,21.1,12.9,0,13,12
5,USA,Salt Lake City Intl AP ,40.77,-111.97,13.1,12,-1.9,22,52
5,USA,Vernal AP    ,40.43,-109.52,12.5,13.7,1.3,14,-25
5,USA,Wendover USAF Auxiliary Field  ,40.72,-114.03,13.8,14.4,-1.5,16,49
5,USA,Abingdon-Virgina Highlands AP   ,36.68,-82.03,13.8,10.4,-1.3,24,33
5,USA,Arlington-Ronald Reagan Washington Natl AP ,38.87,-77.03,15.3,11.6,-0.6,26,-11
5,USA,Blacksburg-Virginia Tech AP   ,37.22,-80.42,13.2,11.1,0.4,27,10
5,USA,Charlottesville-Albemarle County AP   ,38.13,-78.45,15.8,10,1.2,22,32
5,USA,Danville Rgnl AP   ,36.57,-79.33,16.1,10.5,1.6,21,-16
5,USA,Davison AAF    ,38.72,-77.18,14.8,11.7,-0.7,25,-18
5,USA,Farmville Muni AP   ,37.35,-78.43,15.7,11.2,0.4,29,-2
5,USA,Franklin Muni AP   ,36.7,-76.9,17.3,9.6,1.1,24,-21
5,USA,Fredericksburg-Shannon AP    ,38.27,-77.45,15,11.5,-0.5,25,4
5,USA,Hillsville-Twin County AP   ,36.77,-80.82,12.6,10.6,-0.8,26,30
5,USA,Hot Springs-Ingalls Field   ,37.95,-79.83,10.3,9.9,0.1,28,2
5,USA,Langley AFB    ,37.08,-76.35,15.3,11,-0.1,25,5
5,USA,Leesburg Muni AP-Godfrey Field  ,39.08,-77.57,13.6,12,0.2,26,-6
5,USA,Lynchburg Rgnl AP-Preston Glen Field ,37.33,-79.2,15,11.1,0.7,21,2
5,USA,Manassas Muni AWOS   ,38.72,-77.52,13.5,11.3,-0.9,24,8
5,USA,Marion-Wytheville-Mountain Empire AP   ,36.9,-81.35,13.5,10.7,1.1,20,-7
5,USA,Martinsville-Blue Ridge AP   ,36.63,-80.02,14.8,11.2,-0.8,25,18
5,USA,Melfa-Accomack County AP   ,37.65,-75.77,15.8,10.6,-1,33,-27
5,USA,Newport News    ,37.13,-76.5,16.7,10.3,0.1,22,3
5,USA,Norfolk Intl AP   ,36.9,-76.2,16.5,10.4,0.5,25,6
5,USA,Norfolk NAS    ,36.95,-76.28,17.1,9.4,0.5,23,2
5,USA,Oceana NAS    ,36.82,-76.03,16.8,9.9,0.7,24,-37
5,USA,Petersburg Muni AP   ,37.18,-77.52,16.4,10.3,-0.9,20,-29
5,USA,Pulaski-New River Valley AP  ,37.13,-80.68,13.3,10.8,0.1,27,7
5,USA,Quantico MCAS    ,38.5,-77.3,15.4,11.1,0.8,25,-22
5,USA,Richmond Intl AP   ,37.52,-77.32,15.9,10.9,0.5,23,12
5,USA,Roanoke Rgnl AP-Woodrum Field  ,37.32,-79.97,14.9,10.8,0.3,21,14
5,USA,Staunton-Shenandoah Valley Rgnl AP  ,38.27,-78.9,14.5,11.5,-0.8,27,27
5,USA,Sterling-Washington Dulles Intl AP  ,38.98,-77.47,13.9,11.5,0.4,22,8
5,USA,Winchester Rgnl AP   ,39.15,-78.15,13.7,11.9,-0.3,24,1
5,USA,Wise-Lonesome Pine AP   ,36.98,-82.53,13.6,10.5,0.6,31,6
5,USA,Charlotte-AmalieHarrySTrum,18.35,-64.97,27.6,2,0.5,49,-3
5,USA,Burlington Intl AP   ,44.47,-73.15,9,12.7,-1.2,28,-4
5,USA,Montpelier AP    ,44.2,-72.57,8.7,12.1,-0.4,32,9
5,USA,Rutland State AP   ,43.52,-72.95,9.2,13.7,-0.8,29,5
5,USA,Springfield-Hartnes State AP   ,43.35,-72.52,9.2,12.4,-0.5,30,-14
5,USA,Bellingham Intl AP   ,48.8,-122.53,11.6,8.2,-0.8,19,21
5,USA,Bremerton National AP   ,47.48,-122.75,12.4,8,-0.9,16,44
5,USA,Ephrata Muni AP   ,47.3,-119.52,13.6,13.4,1.5,17,-28
5,USA,Fairchild AFB    ,47.63,-117.65,9.9,12.4,-2.7,21,49
5,USA,Fort Lewis-Gray AAF   ,47.08,-122.58,12,8.9,-1.7,22,54
5,USA,Hanford     ,46.57,-119.6,13.4,13.6,2,19,-32
5,USA,Hoquiam AP    ,46.98,-123.93,12.4,6.3,0.1,21,12
5,USA,Kelso AP    ,46.13,-122.9,13.4,7.8,1.5,17,-27
5,USA,Moses Lake-Grant County AP  ,47.2,-119.32,13.7,12.5,1.6,14,-29
5,USA,Olympia AP    ,46.97,-122.9,12.2,8.3,-1,20,50
5,USA,Pasco-Tri Cities AP   ,46.27,-119.12,14.8,12,-0.1,13,6
5,USA,Port Angeles-William R Fairchild Intl AP,48.12,-123.5,11.6,7.4,0.6,21,-29
5,USA,Pullman-Moscow Rgnl AP   ,46.75,-117.12,11.6,11.5,-1.5,19,49
5,USA,Quillayute State AP   ,47.93,-124.57,10.6,5.2,-0.6,26,51
5,USA,Renton Muni AP   ,47.48,-122.22,13.9,8.1,-1.1,17,39
5,USA,Seattle-Boeing Field    ,47.68,-122.25,13.9,7.8,1.1,20,-33
5,USA,Seattle-Tacoma Intl AP   ,47.47,-122.32,13.1,7.8,1.1,19,-25
5,USA,Snohomish County AP   ,47.9,-122.28,12.7,7.1,-1.3,23,40
5,USA,Spokane-Felts Field    ,47.68,-117.32,12.1,12.1,-1.7,20,37
5,USA,Spokane Intl AP   ,47.49,-117.59,10.8,11.9,1,18,-29
5,USA,Stampede Pass    ,47.28,-121.33,7.5,10,-1.6,23,25
5,USA,Tacoma-McChord AFB    ,47.15,-122.48,11.9,9,-1.5,22,44
5,USA,Tacoma Narrows AP   ,47.27,-122.58,13.3,7.8,-0.6,19,34
5,USA,The Dalles Muni AP  ,45.62,-121.15,15.1,11,1.5,16,-32
5,USA,Toledo-Winlock-Ed Carlson Mem AP  ,46.48,-122.8,11.6,8.8,1.4,22,-30
5,USA,Walla Walla City-County AP  ,46.1,-118.28,14.3,11.5,-1.9,18,46
5,USA,Wenatchee-Pangborn Mem AP   ,47.4,-120.2,13.2,13.3,1.2,17,-25
5,USA,Whidbey Island NAS   ,48.35,-122.67,12.1,6.5,0,19,11
5,USA,Yakima Air Terminal-McAllister Field  ,46.57,-120.55,12.4,12.5,1.4,13,-26
5,USA,Appleton-Outagamie County AP   ,44.25,-88.52,9.6,12.3,-0.8,27,3
5,USA,Eau Claire County AP  ,44.87,-91.48,8.3,13.9,-1.1,27,10
5,USA,Ephraim AWOS    ,45.15,-87.15,8,13.7,-2,27,26
5,USA,Green Bay-Austin Straubel Intl AP ,44.48,-88.13,8.7,13.4,-1.4,28,2
5,USA,Janesville-Rock County AP   ,42.62,-89.03,9.9,10.5,-0.4,26,2
5,USA,La Crosse Muni AP  ,43.87,-91.25,9.7,14,-0.9,26,5
5,USA,Lone Rock AP   ,43.2,-90.18,10.6,12.2,-1.5,29,-35
5,USA,Madison-Dane County Rgnl AP  ,43.13,-89.33,9.1,13.8,-0.5,24,-11
5,USA,Manitowac Muni AWOS   ,44.13,-87.68,9.2,11.8,-0.7,34,-21
5,USA,Marshfield Muni AP   ,44.63,-90.18,9.2,12.9,0,28,12
5,USA,Milwaukee-Mitchell Intl AP   ,42.95,-87.9,9.2,13,-0.6,31,14
5,USA,Minocqua-Woodruff-Lee Field    ,45.93,-89.73,7.6,13.4,-1.1,30,7
5,USA,Mosinee-Central Wisconsin AP   ,44.78,-89.67,8,13.3,-1.5,25,15
5,USA,Phillips-Price County AP   ,45.7,-90.4,7.8,13.5,-1.2,30,6
5,USA,Rice Lake Muni AP  ,45.48,-91.72,8.2,13.7,-1.1,30,7
5,USA,Sturgeon Bay-Door County AP  ,44.85,-87.42,9,12.7,-0.4,34,4
5,USA,Watertown Muni AP   ,43.17,-88.72,10.3,13.2,-1.2,30,-15
5,USA,Wausau Muni AP   ,44.92,-89.63,8.7,14,-1.8,33,14
5,USA,Wittman Rgnl AP   ,43.98,-88.55,8.8,12.6,-0.4,28,6
5,USA,Beckley-Raleigh County Mem AP  ,37.8,-81.12,12.5,10.6,1,20,-16
5,USA,Bluefield-Mercer County AP   ,37.27,-81.24,13.7,9.6,0.3,27,7
5,USA,Charleston-Yeager AP    ,38.38,-81.58,14.1,11.2,0.5,21,4
5,USA,Clarksburg-Harrison Marion Rgnl AP  ,39.28,-80.23,13.3,11.2,1.8,19,-21
5,USA,Elkins-Randolph County AP   ,38.88,-79.85,11,10.8,0.5,21,11
5,USA,Huntington-Tri State Walker Long Field ,38.38,-82.55,14.2,11.1,0.8,21,27
5,USA,Lewisburg-Greenbrier Valley AP   ,37.87,-80.4,11.1,10.6,-0.9,23,29
5,USA,Martinsburg-Eastern WV Rgnl AP  ,39.4,-77.98,14.2,10.1,0.7,22,13
5,USA,Morgantown Muni-Hart Field   ,39.65,-79.92,13.2,10.7,1.1,20,19
5,USA,Parkersburg-Wood County-Gill Robb Wilson AP ,39.35,-81.43,13.8,11.8,1.1,26,15
5,USA,Wheeling-Ohio County AP   ,40.18,-80.65,12.1,11.1,0.1,24,1
5,USA,Casper-Natrona County Intl AP  ,42.9,-106.47,10.1,13.2,-1.2,25,28
5,USA,Cheyenne Muni AP   ,41.15,-104.8,9.8,11.9,-1.2,24,36
5,USA,Cody Muni AWOS   ,44.52,-109.02,9.4,11.7,1.2,23,-41
5,USA,Evanston-Uinta County AP-Burns Field  ,41.28,-111.03,7.4,12,-1.8,29,27
5,USA,Gillette-Gillette County AP   ,44.35,-105.53,11.5,13.6,-1.4,22,43
5,USA,Green River-Greater Green River Intergalactic Spaceport,41.46,-109.44,9.2,13,-1.2,22,26
5,USA,Jackson Hole AP   ,43.6,-110.73,5.8,10.8,-2,28,30
5,USA,Lander-Hunt Field    ,42.82,-108.73,10.6,13.7,-0.8,20,30
5,USA,Laramie-General Brees Field   ,41.32,-105.68,7.8,11.1,-1.1,26,36
5,USA,Rawlins Muni AP   ,41.8,-107.2,8.6,11.7,-1.7,22,29
5,USA,Riverton Rgnl AP   ,43.05,-108.45,10.9,14.6,-1.2,23,22
5,USA,Sheridan County AP   ,44.77,-106.97,10.6,13.4,-0.2,21,-3
5,USA,Worland Muni AP   ,43.97,-107.95,11.2,14.7,0,22,13